[{"roadName":"Compton Road","secure":false,"geometry":{"address_components":[{"long_name":"Compton Road","short_name":"Compton Rd","types":["route"]},{"long_name":"Brighton","short_name":"Brighton","types":["postal_town"]},{"long_name":"The City of Brighton and Hove","short_name":"The City of Brighton and Hove","types":["administrative_area_level_2","political"]},{"long_name":"England","short_name":"England","types":["administrative_area_level_1","political"]},{"long_name":"United Kingdom","short_name":"GB","types":["country","political"]},{"long_name":"BN1 5AN","short_name":"BN1 5AN","types":["postal_code"]}],"formatted_address":"Compton Rd, Brighton BN1 5AN, UK","geometry":{"bounds":{"northeast":{"lat":50.8422516,"lng":-0.1538614},"southwest":{"lat":50.8395385,"lng":-0.156833}},"location":{"lat":50.8400065,"lng":-0.1544015},"location_type":"GEOMETRIC_CENTER","viewport":{"northeast":{"lat":50.8422516,"lng":-0.1538614},"southwest":{"lat":50.8395385,"lng":-0.156833}}},"place_id":"ChIJrVOMUGGFdUgR6clqob_K51U","types":["route"]}},{"roadName":"Hampstead Road","secure":false,"geometry":{"address_components":[{"long_name":"Hampstead Road","short_name":"Hampstead Rd","types":["route"]},{"long_name":"Brighton","short_name":"Brighton","types":["postal_town"]},{"long_name":"The City of Brighton and Hove","short_name":"The City of Brighton and Hove","types":["administrative_area_level_2","political"]},{"long_name":"England","short_name":"England","types":["administrative_area_level_1","political"]},{"long_name":"United Kingdom","short_name":"GB","types":["country","political"]},{"long_name":"BN1 5NG","short_name":"BN1 5NG","types":["postal_code"]}],"formatted_address":"Hampstead Rd, Brighton BN1 5NG, UK","geometry":{"bounds":{"northeast":{"lat":50.8447703,"lng":-0.1551279},"southwest":{"lat":50.8422654,"lng":-0.1572607}},"location":{"lat":50.84335799999999,"lng":-0.1563265},"location_type":"GEOMETRIC_CENTER","viewport":{"northeast":{"lat":50.8448668302915,"lng":-0.154845319708498},"southwest":{"lat":50.8421688697085,"lng":-0.157543280291502}}},"place_id":"ChIJxXgVmGGFdUgRzfb86R9eVIg","types":["route"]}},{"roadName":"Inwood crescent","secure":false,"geometry":{"address_components":[{"long_name":"Inwood Crescent","short_name":"Inwood Cres","types":["route"]},{"long_name":"Brighton","short_name":"Brighton","types":["postal_town"]},{"long_name":"The City of Brighton and Hove","short_name":"The City of Brighton and Hove","types":["administrative_area_level_2","political"]},{"long_name":"England","short_name":"England","types":["administrative_area_level_1","political"]},{"long_name":"United Kingdom","short_name":"GB","types":["country","political"]},{"long_name":"BN1 5AP","short_name":"BN1 5AP","types":["postal_code"]}],"formatted_address":"Inwood Cres, Brighton BN1 5AP, UK","geometry":{"bounds":{"northeast":{"lat":50.8419696,"lng":-0.1540979},"southwest":{"lat":50.8400065,"lng":-0.1563081}},"location":{"lat":50.8412125,"lng":-0.154516},"location_type":"GEOMETRIC_CENTER","viewport":{"northeast":{"lat":50.8423370302915,"lng":-0.153854019708498},"southwest":{"lat":50.8396390697085,"lng":-0.1565519802915021}}},"place_id":"ChIJ7Xy7UGGFdUgR97K7gg5oAkM","types":["route"]}},{"roadName":"Reigate Road","secure":false,"geometry":{"address_components":[{"long_name":"Reigate Road","short_name":"Reigate Rd","types":["route"]},{"long_name":"Brighton","short_name":"Brighton","types":["postal_town"]},{"long_name":"The City of Brighton and Hove","short_name":"The City of Brighton and Hove","types":["administrative_area_level_2","political"]},{"long_name":"England","short_name":"England","types":["administrative_area_level_1","political"]},{"long_name":"United Kingdom","short_name":"GB","types":["country","political"]},{"long_name":"BN1 5AG","short_name":"BN1 5AG","types":["postal_code"]}],"formatted_address":"Reigate Rd, Brighton BN1 5AG, UK","geometry":{"bounds":{"northeast":{"lat":50.8421689,"lng":-0.154349},"southwest":{"lat":50.8390138,"lng":-0.1577562}},"location":{"lat":50.8401346,"lng":-0.1555925},"location_type":"GEOMETRIC_CENTER","viewport":{"northeast":{"lat":50.8421689,"lng":-0.154349},"southwest":{"lat":50.8390138,"lng":-0.1577562}}},"place_id":"ChIJjaDIS2GFdUgR7YCPcXZ0fYs","types":["route"]}},{"roadName":"Robertson Road","secure":false,"geometry":{"address_components":[{"long_name":"Robertson Road","short_name":"Robertson Rd","types":["route"]},{"long_name":"Brighton","short_name":"Brighton","types":["postal_town"]},{"long_name":"The City of Brighton and Hove","short_name":"The City of Brighton and Hove","types":["administrative_area_level_2","political"]},{"long_name":"England","short_name":"England","types":["administrative_area_level_1","political"]},{"long_name":"United Kingdom","short_name":"GB","types":["country","political"]},{"long_name":"BN1 5NJ","short_name":"BN1 5NJ","types":["postal_code"]}],"formatted_address":"Robertson Rd, Brighton BN1 5NJ, UK","geometry":{"bounds":{"northeast":{"lat":50.8443528,"lng":-0.1542668},"southwest":{"lat":50.8423723,"lng":-0.1555248}},"location":{"lat":50.84329,"lng":-0.1550379},"location_type":"GEOMETRIC_CENTER","viewport":{"northeast":{"lat":50.8447115302915,"lng":-0.153546819708498},"southwest":{"lat":50.8420135697085,"lng":-0.156244780291502}}},"place_id":"ChIJo4HkhmGFdUgR87Z2PehtT18","types":["route"]}},{"roadName":"Scarborough Road","secure":false,"geometry":{"address_components":[{"long_name":"Scarborough Road","short_name":"Scarborough Rd","types":["route"]},{"long_name":"Brighton","short_name":"Brighton","types":["postal_town"]},{"long_name":"The City of Brighton and Hove","short_name":"The City of Brighton and Hove","types":["administrative_area_level_2","political"]},{"long_name":"England","short_name":"England","types":["administrative_area_level_1","political"]},{"long_name":"United Kingdom","short_name":"GB","types":["country","political"]},{"long_name":"BN1 5NR","short_name":"BN1 5NR","types":["postal_code"]}],"formatted_address":"Scarborough Rd, Brighton BN1 5NR, UK","geometry":{"bounds":{"northeast":{"lat":50.8433054,"lng":-0.1550379},"southwest":{"lat":50.84229449999999,"lng":-0.1556569}},"location":{"lat":50.8428382,"lng":-0.1554761},"location_type":"GEOMETRIC_CENTER","viewport":{"northeast":{"lat":50.8441489302915,"lng":-0.153998419708498},"southwest":{"lat":50.8414509697085,"lng":-0.156696380291502}}},"place_id":"ChIJydb6eGGFdUgRUs7PZq8Jsm4","types":["route"]}},{"roadName":"Woodside Avenue","secure":false,"geometry":{"address_components":[{"long_name":"Woodside Avenue","short_name":"Woodside Ave","types":["route"]},{"long_name":"Brighton","short_name":"Brighton","types":["postal_town"]},{"long_name":"The City of Brighton and Hove","short_name":"The City of Brighton and Hove","types":["administrative_area_level_2","political"]},{"long_name":"England","short_name":"England","types":["administrative_area_level_1","political"]},{"long_name":"United Kingdom","short_name":"GB","types":["country","political"]},{"long_name":"BN1 5NF","short_name":"BN1 5NF","types":["postal_code"]}],"formatted_address":"Woodside Ave, Brighton BN1 5NF, UK","geometry":{"bounds":{"northeast":{"lat":50.8460634,"lng":-0.1552239},"southwest":{"lat":50.8444048,"lng":-0.1565836}},"location":{"lat":50.845234,"lng":-0.1560372},"location_type":"GEOMETRIC_CENTER","viewport":{"northeast":{"lat":50.8465830802915,"lng":-0.154554769708498},"southwest":{"lat":50.8438851197085,"lng":-0.157252730291502}}},"place_id":"ChIJlez642GFdUgRy4yLMFWOP5k","types":["route"]}},{"roadName":"Ardingly Street","secure":false,"geometry":{"address_components":[{"long_name":"Ardingly Street","short_name":"Ardingly St","types":["route"]},{"long_name":"Brighton","short_name":"Brighton","types":["postal_town"]},{"long_name":"The City of Brighton and Hove","short_name":"The City of Brighton and Hove","types":["administrative_area_level_2","political"]},{"long_name":"England","short_name":"England","types":["administrative_area_level_1","political"]},{"long_name":"United Kingdom","short_name":"GB","types":["country","political"]},{"long_name":"BN2 1SS","short_name":"BN2 1SS","types":["postal_code"]}],"formatted_address":"Ardingly St, Brighton BN2 1SS, UK","geometry":{"bounds":{"northeast":{"lat":50.8212907,"lng":-0.1319104},"southwest":{"lat":50.8208586,"lng":-0.1333497}},"location":{"lat":50.8210246,"lng":-0.1326592},"location_type":"GEOMETRIC_CENTER","viewport":{"northeast":{"lat":50.8224236302915,"lng":-0.131281069708498},"southwest":{"lat":50.8197256697085,"lng":-0.133979030291502}}},"place_id":"ChIJJdP5aKGFdUgR7FcHZd2TJYM","types":["route"]}},{"roadName":"Atlingworth Street","secure":false,"geometry":{"address_components":[{"long_name":"Atlingworth Street","short_name":"Atlingworth St","types":["route"]},{"long_name":"Brighton","short_name":"Brighton","types":["postal_town"]},{"long_name":"The City of Brighton and Hove","short_name":"The City of Brighton and Hove","types":["administrative_area_level_2","political"]},{"long_name":"England","short_name":"England","types":["administrative_area_level_1","political"]},{"long_name":"United Kingdom","short_name":"GB","types":["country","political"]},{"long_name":"BN2 1PL","short_name":"BN2 1PL","types":["postal_code"]}],"formatted_address":"Atlingworth St, Brighton BN2 1PL, UK","geometry":{"bounds":{"northeast":{"lat":50.82006140000001,"lng":-0.1292982},"southwest":{"lat":50.81892089999999,"lng":-0.129728}},"location":{"lat":50.8195339,"lng":-0.1294942},"location_type":"GEOMETRIC_CENTER","viewport":{"northeast":{"lat":50.8208401302915,"lng":-0.1281641197084979},"southwest":{"lat":50.8181421697085,"lng":-0.130862080291502}}},"place_id":"ChIJcctteKSFdUgReKK_iAeHrZ0","types":["route"]}},{"roadName":"Blaker Street","secure":false,"geometry":{"address_components":[{"long_name":"Blaker Street","short_name":"Blaker St","types":["route"]},{"long_name":"Brighton","short_name":"Brighton","types":["postal_town"]},{"long_name":"The City of Brighton and Hove","short_name":"The City of Brighton and Hove","types":["administrative_area_level_2","political"]},{"long_name":"England","short_name":"England","types":["administrative_area_level_1","political"]},{"long_name":"United Kingdom","short_name":"GB","types":["country","political"]},{"long_name":"BN2 0JJ","short_name":"BN2 0JJ","types":["postal_code"]}],"formatted_address":"Blaker St, Brighton BN2 0JJ, UK","geometry":{"bounds":{"northeast":{"lat":50.8234362,"lng":-0.130854},"southwest":{"lat":50.8221701,"lng":-0.1316909}},"location":{"lat":50.822332,"lng":-0.1315975},"location_type":"GEOMETRIC_CENTER","viewport":{"northeast":{"lat":50.82415213029149,"lng":-0.129923469708498},"southwest":{"lat":50.8214541697085,"lng":-0.132621430291502}}},"place_id":"ChIJU16HJaKFdUgRtLmsy6IM2Dk","types":["route"]}},{"roadName":"Broad Street","secure":false,"geometry":{"address_components":[{"long_name":"Broad Street","short_name":"Broad St","types":["route"]},{"long_name":"Brighton","short_name":"Brighton","types":["postal_town"]},{"long_name":"The City of Brighton and Hove","short_name":"The City of Brighton and Hove","types":["administrative_area_level_2","political"]},{"long_name":"England","short_name":"England","types":["administrative_area_level_1","political"]},{"long_name":"United Kingdom","short_name":"GB","types":["country","political"]},{"long_name":"BN2","short_name":"BN2","types":["postal_code","postal_code_prefix"]}],"formatted_address":"Broad St, Brighton BN2, UK","geometry":{"bounds":{"northeast":{"lat":50.8208965,"lng":-0.1345216},"southwest":{"lat":50.8198467,"lng":-0.1349634}},"location":{"lat":50.8203721,"lng":-0.1347503},"location_type":"GEOMETRIC_CENTER","viewport":{"northeast":{"lat":50.8217205802915,"lng":-0.1333935197084979},"southwest":{"lat":50.8190226197085,"lng":-0.136091480291502}}},"place_id":"EhpCcm9hZCBTdCwgQnJpZ2h0b24gQk4yLCBVSw","types":["route"]}},{"roadName":"Chapel Street","secure":false,"geometry":{"address_components":[{"long_name":"Chapel Street","short_name":"Chapel St","types":["route"]},{"long_name":"Brighton","short_name":"Brighton","types":["postal_town"]},{"long_name":"The City of Brighton and Hove","short_name":"The City of Brighton and Hove","types":["administrative_area_level_2","political"]},{"long_name":"England","short_name":"England","types":["administrative_area_level_1","political"]},{"long_name":"United Kingdom","short_name":"GB","types":["country","political"]},{"long_name":"BN2 1RQ","short_name":"BN2 1RQ","types":["postal_code"]}],"formatted_address":"Chapel St, Brighton BN2 1RQ, UK","geometry":{"bounds":{"northeast":{"lat":50.8221077,"lng":-0.131287},"southwest":{"lat":50.8205314,"lng":-0.1321012}},"location":{"lat":50.8212342,"lng":-0.1317355},"location_type":"GEOMETRIC_CENTER","viewport":{"northeast":{"lat":50.82266853029149,"lng":-0.130345119708498},"southwest":{"lat":50.8199705697085,"lng":-0.133043080291502}}},"place_id":"ChIJqX2L2KOFdUgRlk4N1J1dloA","types":["route"]}},{"roadName":"Charlotte Street","secure":false,"geometry":{"address_components":[{"long_name":"Charlotte Street","short_name":"Charlotte St","types":["route"]},{"long_name":"Brighton","short_name":"Brighton","types":["postal_town"]},{"long_name":"The City of Brighton and Hove","short_name":"The City of Brighton and Hove","types":["administrative_area_level_2","political"]},{"long_name":"England","short_name":"England","types":["administrative_area_level_1","political"]},{"long_name":"United Kingdom","short_name":"GB","types":["country","political"]},{"long_name":"BN2 1AG","short_name":"BN2 1AG","types":["postal_code"]}],"formatted_address":"Charlotte St, Brighton BN2 1AG, UK","geometry":{"bounds":{"northeast":{"lat":50.81960609999999,"lng":-0.1277741},"southwest":{"lat":50.818617,"lng":-0.1282009}},"location":{"lat":50.81960609999999,"lng":-0.1278126},"location_type":"GEOMETRIC_CENTER","viewport":{"northeast":{"lat":50.82046053029149,"lng":-0.126638519708498},"southwest":{"lat":50.81776256970849,"lng":-0.129336480291502}}},"place_id":"ChIJ4boJm6SFdUgRd3FY1HqGmTI","types":["route"]}},{"roadName":"Circus Street","secure":false,"geometry":{"address_components":[{"long_name":"Circus Street","short_name":"Circus St","types":["route"]},{"long_name":"Brighton","short_name":"Brighton","types":["postal_town"]},{"long_name":"The City of Brighton and Hove","short_name":"The City of Brighton and Hove","types":["administrative_area_level_2","political"]},{"long_name":"England","short_name":"England","types":["administrative_area_level_1","political"]},{"long_name":"United Kingdom","short_name":"GB","types":["country","political"]},{"long_name":"BN2","short_name":"BN2","types":["postal_code","postal_code_prefix"]}],"formatted_address":"Circus St, Brighton BN2, UK","geometry":{"bounds":{"northeast":{"lat":50.82563039999999,"lng":-0.134759},"southwest":{"lat":50.8244049,"lng":-0.1351702}},"location":{"lat":50.82563039999999,"lng":-0.134759},"location_type":"GEOMETRIC_CENTER","viewport":{"northeast":{"lat":50.8263666302915,"lng":-0.133615619708498},"southwest":{"lat":50.8236686697085,"lng":-0.136313580291502}}},"place_id":"ChIJ9zBPgZ-FdUgRNqizJukYCiw","types":["route"]}},{"roadName":"Devonshire Place","secure":false,"geometry":{"address_components":[{"long_name":"Devonshire Place","short_name":"Devonshire Pl","types":["route"]},{"long_name":"Brighton","short_name":"Brighton","types":["postal_town"]},{"long_name":"The City of Brighton and Hove","short_name":"The City of Brighton and Hove","types":["administrative_area_level_2","political"]},{"long_name":"England","short_name":"England","types":["administrative_area_level_1","political"]},{"long_name":"United Kingdom","short_name":"GB","types":["country","political"]},{"long_name":"BN2 1QA","short_name":"BN2 1QA","types":["postal_code"]}],"formatted_address":"Devonshire Pl, Brighton BN2 1QA, UK","geometry":{"bounds":{"northeast":{"lat":50.8220889,"lng":-0.1307587},"southwest":{"lat":50.8204349,"lng":-0.1315707}},"location":{"lat":50.8214163,"lng":-0.1311056},"location_type":"GEOMETRIC_CENTER","viewport":{"northeast":{"lat":50.8226108802915,"lng":-0.129815719708498},"southwest":{"lat":50.8199129197085,"lng":-0.132513680291502}}},"place_id":"ChIJ88YK26OFdUgRymPj9M1uUEs","types":["route"]}},{"roadName":"Dorset Gardens","secure":false,"geometry":{"address_components":[{"long_name":"Dorset Gardens","short_name":"Dorset Gardens","types":["route"]},{"long_name":"Brighton","short_name":"Brighton","types":["postal_town"]},{"long_name":"The City of Brighton and Hove","short_name":"The City of Brighton and Hove","types":["administrative_area_level_2","political"]},{"long_name":"England","short_name":"England","types":["administrative_area_level_1","political"]},{"long_name":"United Kingdom","short_name":"GB","types":["country","political"]},{"long_name":"BN2 1RL","short_name":"BN2 1RL","types":["postal_code"]}],"formatted_address":"Dorset Gardens, Brighton BN2 1RL, UK","geometry":{"bounds":{"northeast":{"lat":50.8224704,"lng":-0.1331848},"southwest":{"lat":50.8208144,"lng":-0.134057}},"location":{"lat":50.8215043,"lng":-0.1337217},"location_type":"GEOMETRIC_CENTER","viewport":{"northeast":{"lat":50.8229913802915,"lng":-0.132271919708498},"southwest":{"lat":50.82029341970851,"lng":-0.134969880291502}}},"place_id":"ChIJhyphDqGFdUgRyMZFKRB8DTc","types":["route"]}},{"roadName":"Dorset Street","secure":false,"geometry":{"address_components":[{"long_name":"Dorset Street","short_name":"Dorset St","types":["route"]},{"long_name":"Brighton","short_name":"Brighton","types":["postal_town"]},{"long_name":"The City of Brighton and Hove","short_name":"The City of Brighton and Hove","types":["administrative_area_level_2","political"]},{"long_name":"England","short_name":"England","types":["administrative_area_level_1","political"]},{"long_name":"United Kingdom","short_name":"GB","types":["country","political"]},{"long_name":"BN2 1WA","short_name":"BN2 1WA","types":["postal_code"]}],"formatted_address":"Dorset St, Brighton BN2 1WA, UK","geometry":{"bounds":{"northeast":{"lat":50.822653,"lng":-0.1344324},"southwest":{"lat":50.8212995,"lng":-0.1352561}},"location":{"lat":50.8216921,"lng":-0.1348471},"location_type":"GEOMETRIC_CENTER","viewport":{"northeast":{"lat":50.8233252302915,"lng":-0.133495269708498},"southwest":{"lat":50.8206272697085,"lng":-0.136193230291502}}},"place_id":"ChIJu00MVaCFdUgRPrNtJsZiTQE","types":["route"]}},{"roadName":"Eaton Place","secure":false,"geometry":{"address_components":[{"long_name":"Eaton Place","short_name":"Eaton Pl","types":["route"]},{"long_name":"Brighton","short_name":"Brighton","types":["postal_town"]},{"long_name":"The City of Brighton and Hove","short_name":"The City of Brighton and Hove","types":["administrative_area_level_2","political"]},{"long_name":"England","short_name":"England","types":["administrative_area_level_1","political"]},{"long_name":"United Kingdom","short_name":"GB","types":["country","political"]},{"long_name":"BN2 1EH","short_name":"BN2 1EH","types":["postal_code"]}],"formatted_address":"Eaton Pl, Brighton BN2 1EH, UK","geometry":{"bounds":{"northeast":{"lat":50.8184408,"lng":-0.1158073},"southwest":{"lat":50.81644190000001,"lng":-0.1169248}},"location":{"lat":50.8173956,"lng":-0.1163774},"location_type":"GEOMETRIC_CENTER","viewport":{"northeast":{"lat":50.81879033029151,"lng":-0.115017069708498},"southwest":{"lat":50.81609236970851,"lng":-0.117715030291502}}},"place_id":"ChIJ82Ar8riFdUgRE0bErTOJ8IQ","types":["route"]}},{"roadName":"East Drive","secure":false,"geometry":{"address_components":[{"long_name":"East Drive","short_name":"East Dr","types":["route"]},{"long_name":"Brighton","short_name":"Brighton","types":["postal_town"]},{"long_name":"The City of Brighton and Hove","short_name":"The City of Brighton and Hove","types":["administrative_area_level_2","political"]},{"long_name":"England","short_name":"England","types":["administrative_area_level_1","political"]},{"long_name":"United Kingdom","short_name":"GB","types":["country","political"]},{"long_name":"BN2 0BQ","short_name":"BN2 0BQ","types":["postal_code"]}],"formatted_address":"East Dr, Brighton BN2 0BQ, UK","geometry":{"bounds":{"northeast":{"lat":50.8260126,"lng":-0.1227492},"southwest":{"lat":50.8233859,"lng":-0.125228}},"location":{"lat":50.8249001,"lng":-0.1233287},"location_type":"GEOMETRIC_CENTER","viewport":{"northeast":{"lat":50.8260482302915,"lng":-0.122639619708498},"southwest":{"lat":50.8233502697085,"lng":-0.125337580291502}}},"place_id":"ChIJZyK8Yr2FdUgR6Au5D03e4og","types":["route"]}},{"roadName":"Egremont Place","secure":false,"geometry":{"address_components":[{"long_name":"Egremont Place","short_name":"Egremont Pl","types":["route"]},{"long_name":"Brighton","short_name":"Brighton","types":["postal_town"]},{"long_name":"The City of Brighton and Hove","short_name":"The City of Brighton and Hove","types":["administrative_area_level_2","political"]},{"long_name":"England","short_name":"England","types":["administrative_area_level_1","political"]},{"long_name":"United Kingdom","short_name":"GB","types":["country","political"]},{"long_name":"BN2 0GA","short_name":"BN2 0GA","types":["postal_code"]}],"formatted_address":"Egremont Pl, Brighton BN2 0GA, UK","geometry":{"bounds":{"northeast":{"lat":50.8235639,"lng":-0.1283786},"southwest":{"lat":50.8218379,"lng":-0.129547}},"location":{"lat":50.8226559,"lng":-0.1290125},"location_type":"GEOMETRIC_CENTER","viewport":{"northeast":{"lat":50.8240498802915,"lng":-0.127613819708498},"southwest":{"lat":50.8213519197085,"lng":-0.130311780291502}}},"place_id":"ChIJ2TLRV6KFdUgR53ZHjEDUwog","types":["route"]}},{"roadName":"Essex Street","secure":false,"geometry":{"address_components":[{"long_name":"Essex Street","short_name":"Essex St","types":["route"]},{"long_name":"Brighton","short_name":"Brighton","types":["postal_town"]},{"long_name":"The City of Brighton and Hove","short_name":"The City of Brighton and Hove","types":["administrative_area_level_2","political"]},{"long_name":"England","short_name":"England","types":["administrative_area_level_1","political"]},{"long_name":"United Kingdom","short_name":"GB","types":["country","political"]},{"long_name":"BN2 1JW","short_name":"BN2 1JW","types":["postal_code"]}],"formatted_address":"Essex St, Brighton BN2 1JW, UK","geometry":{"bounds":{"northeast":{"lat":50.82068599999999,"lng":-0.1261111},"southwest":{"lat":50.82027309999999,"lng":-0.1278655}},"location":{"lat":50.8205717,"lng":-0.1275263},"location_type":"GEOMETRIC_CENTER","viewport":{"northeast":{"lat":50.82182853029149,"lng":-0.125639319708498},"southwest":{"lat":50.81913056970849,"lng":-0.128337280291502}}},"place_id":"ChIJuzM6RKOFdUgRsi6kSm6hNjg","types":["route"]}},{"roadName":"Evelyn Terrace","secure":false,"geometry":{"address_components":[{"long_name":"Evelyn Terrace","short_name":"Evelyn Terrace","types":["route"]},{"long_name":"Brighton","short_name":"Brighton","types":["postal_town"]},{"long_name":"The City of Brighton and Hove","short_name":"The City of Brighton and Hove","types":["administrative_area_level_2","political"]},{"long_name":"England","short_name":"England","types":["administrative_area_level_1","political"]},{"long_name":"United Kingdom","short_name":"GB","types":["country","political"]},{"long_name":"BN2 0EP","short_name":"BN2 0EP","types":["postal_code"]}],"formatted_address":"Evelyn Terrace, Brighton BN2 0EP, UK","geometry":{"bounds":{"northeast":{"lat":50.8249001,"lng":-0.1206179},"southwest":{"lat":50.82367790000001,"lng":-0.1233287}},"location":{"lat":50.8244639,"lng":-0.1224344},"location_type":"GEOMETRIC_CENTER","viewport":{"northeast":{"lat":50.8256379802915,"lng":-0.1206179},"southwest":{"lat":50.8229400197085,"lng":-0.1233287}}},"place_id":"ChIJ4ama7b2FdUgResA80yiMM0k","types":["route"]}},{"roadName":"Freshfield Place","secure":false,"geometry":{"address_components":[{"long_name":"Freshfield Place","short_name":"Freshfield Pl","types":["route"]},{"long_name":"Brighton","short_name":"Brighton","types":["postal_town"]},{"long_name":"The City of Brighton and Hove","short_name":"The City of Brighton and Hove","types":["administrative_area_level_2","political"]},{"long_name":"England","short_name":"England","types":["administrative_area_level_1","political"]},{"long_name":"United Kingdom","short_name":"GB","types":["country","political"]},{"long_name":"BN2 0BN","short_name":"BN2 0BN","types":["postal_code"]}],"formatted_address":"Freshfield Pl, Brighton BN2 0BN, UK","geometry":{"bounds":{"northeast":{"lat":50.8231292,"lng":-0.1243223},"southwest":{"lat":50.8226296,"lng":-0.1268297}},"location":{"lat":50.8230635,"lng":-0.1266249},"location_type":"GEOMETRIC_CENTER","viewport":{"northeast":{"lat":50.82422838029149,"lng":-0.124227019708498},"southwest":{"lat":50.82153041970849,"lng":-0.126924980291502}}},"place_id":"ChIJudXGMb2FdUgRCNj8Vkc0ISI","types":["route"]}},{"roadName":"Freshfield Way","secure":false,"geometry":{"address_components":[{"long_name":"Freshfield Way","short_name":"Freshfield Way","types":["route"]},{"long_name":"Brighton","short_name":"Brighton","types":["postal_town"]},{"long_name":"The City of Brighton and Hove","short_name":"The City of Brighton and Hove","types":["administrative_area_level_2","political"]},{"long_name":"England","short_name":"England","types":["administrative_area_level_1","political"]},{"long_name":"United Kingdom","short_name":"GB","types":["country","political"]},{"long_name":"BN2 0LE","short_name":"BN2 0LE","types":["postal_code"]}],"formatted_address":"Freshfield Way, Brighton BN2 0LE, UK","geometry":{"bounds":{"northeast":{"lat":50.8217858,"lng":-0.1230454},"southwest":{"lat":50.8212777,"lng":-0.1249121}},"location":{"lat":50.8215324,"lng":-0.1239739},"location_type":"GEOMETRIC_CENTER","viewport":{"northeast":{"lat":50.8228807302915,"lng":-0.122629769708498},"southwest":{"lat":50.8201827697085,"lng":-0.125327730291502}}},"place_id":"ChIJsf5d5byFdUgRGGTt1kCYa1Q","types":["route"]}},{"roadName":"George Street","secure":false,"geometry":{"address_components":[{"long_name":"George Street","short_name":"George St","types":["route"]},{"long_name":"Brighton","short_name":"Brighton","types":["postal_town"]},{"long_name":"The City of Brighton and Hove","short_name":"The City of Brighton and Hove","types":["administrative_area_level_2","political"]},{"long_name":"England","short_name":"England","types":["administrative_area_level_1","political"]},{"long_name":"United Kingdom","short_name":"GB","types":["country","political"]},{"long_name":"BN2","short_name":"BN2","types":["postal_code","postal_code_prefix"]}],"formatted_address":"George St, Brighton BN2, UK","geometry":{"bounds":{"northeast":{"lat":50.8225928,"lng":-0.1340007},"southwest":{"lat":50.82092660000001,"lng":-0.134975}},"location":{"lat":50.8217286,"lng":-0.1344862},"location_type":"GEOMETRIC_CENTER","viewport":{"northeast":{"lat":50.8231086802915,"lng":-0.133138869708498},"southwest":{"lat":50.8204107197085,"lng":-0.135836830291502}}},"place_id":"EhtHZW9yZ2UgU3QsIEJyaWdodG9uIEJOMiwgVUs","types":["route"]}},{"roadName":"Grafton Street","secure":false,"geometry":{"address_components":[{"long_name":"Grafton Street","short_name":"Grafton St","types":["route"]},{"long_name":"Brighton","short_name":"Brighton","types":["postal_town"]},{"long_name":"The City of Brighton and Hove","short_name":"The City of Brighton and Hove","types":["administrative_area_level_2","political"]},{"long_name":"England","short_name":"England","types":["administrative_area_level_1","political"]},{"long_name":"United Kingdom","short_name":"GB","types":["country","political"]},{"long_name":"BN2 1AQ","short_name":"BN2 1AQ","types":["postal_code"]}],"formatted_address":"Grafton St, Brighton BN2 1AQ, UK","geometry":{"bounds":{"northeast":{"lat":50.8198064,"lng":-0.1286696},"southwest":{"lat":50.8187948,"lng":-0.1291088}},"location":{"lat":50.8193156,"lng":-0.1288767},"location_type":"GEOMETRIC_CENTER","viewport":{"northeast":{"lat":50.8206495802915,"lng":-0.127540219708498},"southwest":{"lat":50.8179516197085,"lng":-0.130238180291502}}},"place_id":"ChIJ2Q6ggKSFdUgR4NNNunYOcRg","types":["route"]}},{"roadName":"Hereford Street","secure":false,"geometry":{"address_components":[{"long_name":"Hereford Street","short_name":"Hereford St","types":["route"]},{"long_name":"Brighton","short_name":"Brighton","types":["postal_town"]},{"long_name":"The City of Brighton and Hove","short_name":"The City of Brighton and Hove","types":["administrative_area_level_2","political"]},{"long_name":"England","short_name":"England","types":["administrative_area_level_1","political"]},{"long_name":"United Kingdom","short_name":"GB","types":["country","political"]},{"long_name":"BN2 1JT","short_name":"BN2 1JT","types":["postal_code"]}],"formatted_address":"Hereford St, Brighton BN2 1JT, UK","geometry":{"bounds":{"northeast":{"lat":50.8211357,"lng":-0.1258508},"southwest":{"lat":50.8207146,"lng":-0.1282459}},"location":{"lat":50.8208592,"lng":-0.1266587},"location_type":"GEOMETRIC_CENTER","viewport":{"northeast":{"lat":50.8222741302915,"lng":-0.125699369708498},"southwest":{"lat":50.8195761697085,"lng":-0.128397330291502}}},"place_id":"ChIJSQPQOKOFdUgROxyLvuO3gRo","types":["route"]}},{"roadName":"High Street","secure":false,"geometry":{"address_components":[{"long_name":"High Street","short_name":"High St","types":["route"]},{"long_name":"Brighton","short_name":"Brighton","types":["postal_town"]},{"long_name":"The City of Brighton and Hove","short_name":"The City of Brighton and Hove","types":["administrative_area_level_2","political"]},{"long_name":"England","short_name":"England","types":["administrative_area_level_1","political"]},{"long_name":"United Kingdom","short_name":"GB","types":["country","political"]},{"long_name":"BN2 7HF","short_name":"BN2 7HF","types":["postal_code"]}],"formatted_address":"High St, Brighton BN2 7HF, UK","geometry":{"bounds":{"northeast":{"lat":50.80570609999999,"lng":-0.05667059999999999},"southwest":{"lat":50.80236370000001,"lng":-0.0585722}},"location":{"lat":50.8041006,"lng":-0.0576694},"location_type":"GEOMETRIC_CENTER","viewport":{"northeast":{"lat":50.80570609999999,"lng":-0.05627241970849795},"southwest":{"lat":50.80236370000001,"lng":-0.05897038029150202}}},"place_id":"ChIJKxFZB1iGdUgRyLVNzxC1_fQ","types":["route"]}},{"roadName":"Ivory Place","secure":false,"geometry":{"address_components":[{"long_name":"Ivory Place","short_name":"Ivory Pl","types":["route"]},{"long_name":"Brighton","short_name":"Brighton","types":["postal_town"]},{"long_name":"The City of Brighton and Hove","short_name":"The City of Brighton and Hove","types":["administrative_area_level_2","political"]},{"long_name":"England","short_name":"England","types":["administrative_area_level_1","political"]},{"long_name":"United Kingdom","short_name":"GB","types":["country","political"]},{"long_name":"BN2","short_name":"BN2","types":["postal_code","postal_code_prefix"]}],"formatted_address":"Ivory Pl, Brighton BN2, UK","geometry":{"bounds":{"northeast":{"lat":50.8263627,"lng":-0.1334311},"southwest":{"lat":50.8255596,"lng":-0.1341629}},"location":{"lat":50.8259256,"lng":-0.1336563},"location_type":"GEOMETRIC_CENTER","viewport":{"northeast":{"lat":50.8273101302915,"lng":-0.132448019708498},"southwest":{"lat":50.8246121697085,"lng":-0.135145980291502}}},"place_id":"ChIJ_9U_bZ-FdUgRAlQTnDlkZ1c","types":["route"]}},{"roadName":"John Street","secure":true,"geometry":{"address_components":[{"long_name":"John Street","short_name":"John St","types":["route"]},{"long_name":"Brighton","short_name":"Brighton","types":["postal_town"]},{"long_name":"The City of Brighton and Hove","short_name":"The City of Brighton and Hove","types":["administrative_area_level_2","political"]},{"long_name":"England","short_name":"England","types":["administrative_area_level_1","political"]},{"long_name":"United Kingdom","short_name":"GB","types":["country","political"]},{"long_name":"BN2 9JS","short_name":"BN2 9JS","types":["postal_code"]}],"formatted_address":"John St, Brighton BN2 9JS, UK","geometry":{"bounds":{"northeast":{"lat":50.82749219999999,"lng":-0.1309564},"southwest":{"lat":50.8225503,"lng":-0.1342156}},"location":{"lat":50.8251188,"lng":-0.1328794},"location_type":"GEOMETRIC_CENTER","viewport":{"northeast":{"lat":50.82749219999999,"lng":-0.1309564},"southwest":{"lat":50.8225503,"lng":-0.1342156}}},"place_id":"ChIJZWjsWZ-FdUgRm8IAyiGaAGE","types":["route"]}},{"roadName":"Kingswood Street","secure":false,"geometry":{"address_components":[{"long_name":"Kingswood Street","short_name":"Kingswood St","types":["route"]},{"long_name":"Brighton","short_name":"Brighton","types":["postal_town"]},{"long_name":"The City of Brighton and Hove","short_name":"The City of Brighton and Hove","types":["administrative_area_level_2","political"]},{"long_name":"England","short_name":"England","types":["administrative_area_level_1","political"]},{"long_name":"United Kingdom","short_name":"GB","types":["country","political"]},{"long_name":"BN2 0JY","short_name":"BN2 0JY","types":["postal_code"]}],"formatted_address":"Kingswood St, Brighton BN2 0JY, UK","geometry":{"bounds":{"northeast":{"lat":50.82446789999999,"lng":-0.1333158},"southwest":{"lat":50.8240947,"lng":-0.1356312}},"location":{"lat":50.82424779999999,"lng":-0.1341119},"location_type":"GEOMETRIC_CENTER","viewport":{"northeast":{"lat":50.82563028029149,"lng":-0.133124519708498},"southwest":{"lat":50.82293231970849,"lng":-0.135822480291502}}},"place_id":"ChIJq1xe1KGFdUgRkGxf9bZf1P0","types":["route"]}},{"roadName":"Lavender Street","secure":false,"geometry":{"address_components":[{"long_name":"Lavender Street","short_name":"Lavender St","types":["route"]},{"long_name":"Brighton","short_name":"Brighton","types":["postal_town"]},{"long_name":"The City of Brighton and Hove","short_name":"The City of Brighton and Hove","types":["administrative_area_level_2","political"]},{"long_name":"England","short_name":"England","types":["administrative_area_level_1","political"]},{"long_name":"United Kingdom","short_name":"GB","types":["country","political"]},{"long_name":"BN2","short_name":"BN2","types":["postal_code","postal_code_prefix"]}],"formatted_address":"Lavender St, Brighton BN2, UK","geometry":{"bounds":{"northeast":{"lat":50.821099,"lng":-0.1282459},"southwest":{"lat":50.8199192,"lng":-0.1288389}},"location":{"lat":50.82047499999999,"lng":-0.1285382},"location_type":"GEOMETRIC_CENTER","viewport":{"northeast":{"lat":50.82185808029149,"lng":-0.127193419708498},"southwest":{"lat":50.81916011970849,"lng":-0.129891380291502}}},"place_id":"ChIJITGidqOFdUgRt7QIG0GgwhE","types":["route"]}},{"roadName":"Lennox Street","secure":false,"geometry":{"address_components":[{"long_name":"Lennox Street","short_name":"Lennox St","types":["route"]},{"long_name":"Brighton","short_name":"Brighton","types":["postal_town"]},{"long_name":"The City of Brighton and Hove","short_name":"The City of Brighton and Hove","types":["administrative_area_level_2","political"]},{"long_name":"England","short_name":"England","types":["administrative_area_level_1","political"]},{"long_name":"United Kingdom","short_name":"GB","types":["country","political"]},{"long_name":"BN2 0GS","short_name":"BN2 0GS","types":["postal_code"]}],"formatted_address":"Lennox St, Brighton BN2 0GS, UK","geometry":{"bounds":{"northeast":{"lat":50.8239634,"lng":-0.1301938},"southwest":{"lat":50.8233598,"lng":-0.1305647}},"location":{"lat":50.8238657,"lng":-0.1301938},"location_type":"GEOMETRIC_CENTER","viewport":{"northeast":{"lat":50.8250105802915,"lng":-0.129030269708498},"southwest":{"lat":50.82231261970851,"lng":-0.131728230291502}}},"place_id":"ChIJOY0ya6KFdUgRkRts9vwF69A","types":["route"]}},{"roadName":"Madeira Place","secure":true,"geometry":{"address_components":[{"long_name":"Madeira Place","short_name":"Madeira Pl","types":["route"]},{"long_name":"Brighton","short_name":"Brighton","types":["postal_town"]},{"long_name":"The City of Brighton and Hove","short_name":"The City of Brighton and Hove","types":["administrative_area_level_2","political"]},{"long_name":"England","short_name":"England","types":["administrative_area_level_1","political"]},{"long_name":"United Kingdom","short_name":"GB","types":["country","political"]},{"long_name":"BN2","short_name":"BN2","types":["postal_code","postal_code_prefix"]}],"formatted_address":"Madeira Pl, Brighton BN2, UK","geometry":{"bounds":{"northeast":{"lat":50.8208144,"lng":-0.1338082},"southwest":{"lat":50.81978909999999,"lng":-0.1344192}},"location":{"lat":50.8203039,"lng":-0.1341944},"location_type":"GEOMETRIC_CENTER","viewport":{"northeast":{"lat":50.82165073029149,"lng":-0.132764719708498},"southwest":{"lat":50.8189527697085,"lng":-0.135462680291502}}},"place_id":"EhxNYWRlaXJhIFBsLCBCcmlnaHRvbiBCTjIsIFVL","types":["route"]}},{"roadName":"Margaret Street","secure":false,"geometry":{"address_components":[{"long_name":"Margaret Street","short_name":"Margaret St","types":["route"]},{"long_name":"Brighton","short_name":"Brighton","types":["postal_town"]},{"long_name":"The City of Brighton and Hove","short_name":"The City of Brighton and Hove","types":["administrative_area_level_2","political"]},{"long_name":"England","short_name":"England","types":["administrative_area_level_1","political"]},{"long_name":"United Kingdom","short_name":"GB","types":["country","political"]},{"long_name":"BN2 1TS","short_name":"BN2 1TS","types":["postal_code"]}],"formatted_address":"Margaret St, Brighton BN2 1TS, UK","geometry":{"bounds":{"northeast":{"lat":50.82059479999999,"lng":-0.1324312},"southwest":{"lat":50.8194698,"lng":-0.1327816}},"location":{"lat":50.8201799,"lng":-0.1325717},"location_type":"GEOMETRIC_CENTER","viewport":{"northeast":{"lat":50.8213812802915,"lng":-0.131257419708498},"southwest":{"lat":50.8186833197085,"lng":-0.133955380291502}}},"place_id":"ChIJRZ5MTqGFdUgRejNg_54QI7o","types":["route"]}},{"roadName":"Morley Street","secure":false,"geometry":{"address_components":[{"long_name":"Morley Street","short_name":"Morley St","types":["route"]},{"long_name":"Brighton","short_name":"Brighton","types":["postal_town"]},{"long_name":"The City of Brighton and Hove","short_name":"The City of Brighton and Hove","types":["administrative_area_level_2","political"]},{"long_name":"England","short_name":"England","types":["administrative_area_level_1","political"]},{"long_name":"United Kingdom","short_name":"GB","types":["country","political"]},{"long_name":"BN2 9RA","short_name":"BN2 9RA","types":["postal_code"]}],"formatted_address":"Morley St, Brighton BN2 9RA, UK","geometry":{"bounds":{"northeast":{"lat":50.8257744,"lng":-0.133231},"southwest":{"lat":50.825397,"lng":-0.1352092}},"location":{"lat":50.8255596,"lng":-0.1341629},"location_type":"GEOMETRIC_CENTER","viewport":{"northeast":{"lat":50.8269346802915,"lng":-0.132871119708498},"southwest":{"lat":50.8242367197085,"lng":-0.135569080291502}}},"place_id":"ChIJyUJHcZ-FdUgRR_1ClCvJyHU","types":["route"]}},{"roadName":"Mount Pleasant","secure":false,"geometry":{"address_components":[{"long_name":"Mount Pleasant","short_name":"Mount Pleasant","types":["route"]},{"long_name":"Brighton","short_name":"Brighton","types":["postal_town"]},{"long_name":"The City of Brighton and Hove","short_name":"The City of Brighton and Hove","types":["administrative_area_level_2","political"]},{"long_name":"England","short_name":"England","types":["administrative_area_level_1","political"]},{"long_name":"United Kingdom","short_name":"GB","types":["country","political"]},{"long_name":"BN2 0JN","short_name":"BN2 0JN","types":["postal_code"]}],"formatted_address":"Mount Pleasant, Brighton BN2 0JN, UK","geometry":{"bounds":{"northeast":{"lat":50.8230791,"lng":-0.1293155},"southwest":{"lat":50.8219498,"lng":-0.130247}},"location":{"lat":50.82272649999999,"lng":-0.1296803},"location_type":"GEOMETRIC_CENTER","viewport":{"northeast":{"lat":50.8238634302915,"lng":-0.128432269708498},"southwest":{"lat":50.8211654697085,"lng":-0.131130230291502}}},"place_id":"ChIJh12lTqKFdUgRZatVI6X3dXI","types":["route"]}},{"roadName":"Old Steine","secure":false,"geometry":{"address_components":[{"long_name":"Old Steine","short_name":"Old Steine","types":["route"]},{"long_name":"Brighton","short_name":"Brighton","types":["postal_town"]},{"long_name":"The City of Brighton and Hove","short_name":"The City of Brighton and Hove","types":["administrative_area_level_2","political"]},{"long_name":"England","short_name":"England","types":["administrative_area_level_1","political"]},{"long_name":"United Kingdom","short_name":"GB","types":["country","political"]}],"formatted_address":"Old Steine, Brighton, UK","geometry":{"bounds":{"northeast":{"lat":50.82354309999999,"lng":-0.1361013},"southwest":{"lat":50.8195669,"lng":-0.1390104}},"location":{"lat":50.82127500000001,"lng":-0.1375651},"location_type":"GEOMETRIC_CENTER","viewport":{"northeast":{"lat":50.82354309999999,"lng":-0.1361013},"southwest":{"lat":50.8195669,"lng":-0.1390104}}},"place_id":"ChIJOaeWgqCFdUgRamE5wk-WGrw","types":["route"]}},{"roadName":"Park Street","secure":false,"geometry":{"address_components":[{"long_name":"Park Street","short_name":"Park St","types":["route"]},{"long_name":"Brighton","short_name":"Brighton","types":["postal_town"]},{"long_name":"The City of Brighton and Hove","short_name":"The City of Brighton and Hove","types":["administrative_area_level_2","political"]},{"long_name":"England","short_name":"England","types":["administrative_area_level_1","political"]},{"long_name":"United Kingdom","short_name":"GB","types":["country","political"]},{"long_name":"BN2 0BS","short_name":"BN2 0BS","types":["postal_code"]}],"formatted_address":"Park St, Brighton BN2 0BS, UK","geometry":{"bounds":{"northeast":{"lat":50.8231292,"lng":-0.1268297},"southwest":{"lat":50.8216049,"lng":-0.1279953}},"location":{"lat":50.8223194,"lng":-0.1274943},"location_type":"GEOMETRIC_CENTER","viewport":{"northeast":{"lat":50.8237160302915,"lng":-0.126063519708498},"southwest":{"lat":50.8210180697085,"lng":-0.128761480291502}}},"place_id":"ChIJoRGl2aKFdUgR--R-2H9VQ14","types":["route"]}},{"roadName":"Pavilion Street","secure":false,"geometry":{"address_components":[{"long_name":"Pavilion Street","short_name":"Pavilion St","types":["route"]},{"long_name":"Brighton","short_name":"Brighton","types":["postal_town"]},{"long_name":"The City of Brighton and Hove","short_name":"The City of Brighton and Hove","types":["administrative_area_level_2","political"]},{"long_name":"England","short_name":"England","types":["administrative_area_level_1","political"]},{"long_name":"United Kingdom","short_name":"GB","types":["country","political"]},{"long_name":"BN2 1RD","short_name":"BN2 1RD","types":["postal_code"]}],"formatted_address":"Pavilion St, Brighton BN2 1RD, UK","geometry":{"bounds":{"northeast":{"lat":50.82230149999999,"lng":-0.1359516},"southwest":{"lat":50.8221921,"lng":-0.1364732}},"location":{"lat":50.82230149999999,"lng":-0.1364732},"location_type":"GEOMETRIC_CENTER","viewport":{"northeast":{"lat":50.8235957802915,"lng":-0.134863419708498},"southwest":{"lat":50.8208978197085,"lng":-0.137561380291502}}},"place_id":"ChIJ9z5PYKCFdUgRE2mZJgEtB0E","types":["route"]}},{"roadName":"Queens Park Terrace","secure":true,"geometry":{"address_components":[{"long_name":"Queen's Park Terrace","short_name":"Queen's Park Terrace","types":["route"]},{"long_name":"Brighton","short_name":"Brighton","types":["postal_town"]},{"long_name":"The City of Brighton and Hove","short_name":"The City of Brighton and Hove","types":["administrative_area_level_2","political"]},{"long_name":"England","short_name":"England","types":["administrative_area_level_1","political"]},{"long_name":"United Kingdom","short_name":"GB","types":["country","political"]},{"long_name":"BN2 9YA","short_name":"BN2 9YA","types":["postal_code"]}],"formatted_address":"Queen's Park Terrace, Brighton BN2 9YA, UK","geometry":{"bounds":{"northeast":{"lat":50.8276494,"lng":-0.1216068},"southwest":{"lat":50.82512329999999,"lng":-0.1248512}},"location":{"lat":50.8265347,"lng":-0.1221759},"location_type":"GEOMETRIC_CENTER","viewport":{"northeast":{"lat":50.8277353302915,"lng":-0.1216068},"southwest":{"lat":50.8250373697085,"lng":-0.1248512}}},"place_id":"ChIJZyqotJeFdUgRvxHxWihHSOk","types":["route"]}},{"roadName":"Royal Crescent Mews","secure":false,"geometry":{"address_components":[{"long_name":"Royal Crescent Mews","short_name":"Royal Crescent Mews","types":["route"]},{"long_name":"Brighton","short_name":"Brighton","types":["postal_town"]},{"long_name":"The City of Brighton and Hove","short_name":"The City of Brighton and Hove","types":["administrative_area_level_2","political"]},{"long_name":"England","short_name":"England","types":["administrative_area_level_1","political"]},{"long_name":"United Kingdom","short_name":"GB","types":["country","political"]},{"long_name":"BN2 1AW","short_name":"BN2 1AW","types":["postal_code"]}],"formatted_address":"Royal Crescent Mews, Brighton BN2 1AW, UK","geometry":{"bounds":{"northeast":{"lat":50.8187629,"lng":-0.124575},"southwest":{"lat":50.8179707,"lng":-0.1256359}},"location":{"lat":50.8186268,"lng":-0.1247388},"location_type":"GEOMETRIC_CENTER","viewport":{"northeast":{"lat":50.8197157802915,"lng":-0.123756469708498},"southwest":{"lat":50.8170178197085,"lng":-0.126454430291502}}},"place_id":"ChIJqWoPR7uFdUgRZ7pe3h7Zxtk","types":["route"]}},{"roadName":"Somerset Street","secure":false,"geometry":{"address_components":[{"long_name":"Somerset Street","short_name":"Somerset St","types":["route"]},{"long_name":"Brighton","short_name":"Brighton","types":["postal_town"]},{"long_name":"The City of Brighton and Hove","short_name":"The City of Brighton and Hove","types":["administrative_area_level_2","political"]},{"long_name":"England","short_name":"England","types":["administrative_area_level_1","political"]},{"long_name":"United Kingdom","short_name":"GB","types":["country","political"]},{"long_name":"BN2","short_name":"BN2","types":["postal_code","postal_code_prefix"]}],"formatted_address":"Somerset St, Brighton BN2, UK","geometry":{"bounds":{"northeast":{"lat":50.8207146,"lng":-0.1238246},"southwest":{"lat":50.8202943,"lng":-0.1258508}},"location":{"lat":50.8207146,"lng":-0.1258508},"location_type":"GEOMETRIC_CENTER","viewport":{"northeast":{"lat":50.8218534302915,"lng":-0.123488719708498},"southwest":{"lat":50.81915546970851,"lng":-0.126186680291502}}},"place_id":"ChIJz2yUvryFdUgRJc8l7OiJWdk","types":["route"]}},{"roadName":"South Avenue","secure":false,"geometry":{"address_components":[{"long_name":"South Avenue","short_name":"South Ave","types":["route"]},{"long_name":"Brighton","short_name":"Brighton","types":["postal_town"]},{"long_name":"The City of Brighton and Hove","short_name":"The City of Brighton and Hove","types":["administrative_area_level_2","political"]},{"long_name":"England","short_name":"England","types":["administrative_area_level_1","political"]},{"long_name":"United Kingdom","short_name":"GB","types":["country","political"]},{"long_name":"BN2","short_name":"BN2","types":["postal_code","postal_code_prefix"]}],"formatted_address":"South Ave, Brighton BN2, UK","geometry":{"bounds":{"northeast":{"lat":50.8235722,"lng":-0.1239694},"southwest":{"lat":50.823101,"lng":-0.1268297}},"location":{"lat":50.8233859,"lng":-0.125228},"location_type":"GEOMETRIC_CENTER","viewport":{"northeast":{"lat":50.8246855802915,"lng":-0.1239694},"southwest":{"lat":50.82198761970851,"lng":-0.1268297}}},"place_id":"ChIJPzORN72FdUgRJsLNfmOF8GQ","types":["route"]}},{"roadName":"St Georges Terrace","secure":false,"geometry":{"address_components":[{"long_name":"Saint George's Terrace","short_name":"St George's Terrace","types":["route"]},{"long_name":"Brighton","short_name":"Brighton","types":["postal_town"]},{"long_name":"The City of Brighton and Hove","short_name":"The City of Brighton and Hove","types":["administrative_area_level_2","political"]},{"long_name":"England","short_name":"England","types":["administrative_area_level_1","political"]},{"long_name":"United Kingdom","short_name":"GB","types":["country","political"]},{"long_name":"BN2 1JJ","short_name":"BN2 1JJ","types":["postal_code"]}],"formatted_address":"St George's Terrace, Brighton BN2 1JJ, UK","geometry":{"bounds":{"northeast":{"lat":50.8198668,"lng":-0.1243825},"southwest":{"lat":50.8194691,"lng":-0.1263773}},"location":{"lat":50.8196946,"lng":-0.1255381},"location_type":"GEOMETRIC_CENTER","viewport":{"northeast":{"lat":50.8210169302915,"lng":-0.124030919708498},"southwest":{"lat":50.8183189697085,"lng":-0.126728880291502}}},"place_id":"ChIJ2eppqLyFdUgR9fzQOVU5KXU","types":["route"]}},{"roadName":"St Jamesâ€™ Avenue","secure":false,"geometry":{"address_components":[{"long_name":"Saint James's Avenue","short_name":"St James's Ave","types":["route"]},{"long_name":"Brighton","short_name":"Brighton","types":["postal_town"]},{"long_name":"The City of Brighton and Hove","short_name":"The City of Brighton and Hove","types":["administrative_area_level_2","political"]},{"long_name":"England","short_name":"England","types":["administrative_area_level_1","political"]},{"long_name":"United Kingdom","short_name":"GB","types":["country","political"]},{"long_name":"BN2 1QD","short_name":"BN2 1QD","types":["postal_code"]}],"formatted_address":"St James's Ave, Brighton BN2 1QD, UK","geometry":{"bounds":{"northeast":{"lat":50.82197439999999,"lng":-0.1299637},"southwest":{"lat":50.8203029,"lng":-0.130774}},"location":{"lat":50.8211762,"lng":-0.1303734},"location_type":"GEOMETRIC_CENTER","viewport":{"northeast":{"lat":50.8224876302915,"lng":-0.129019869708498},"southwest":{"lat":50.81978966970851,"lng":-0.131717830291502}}},"place_id":"ChIJa1mvwKOFdUgR1_YG_dn2_oA","types":["route"]}},{"roadName":"Sutherland Road","secure":false,"geometry":{"address_components":[{"long_name":"Sutherland Road","short_name":"Sutherland Rd","types":["route"]},{"long_name":"Brighton","short_name":"Brighton","types":["postal_town"]},{"long_name":"The City of Brighton and Hove","short_name":"The City of Brighton and Hove","types":["administrative_area_level_2","political"]},{"long_name":"England","short_name":"England","types":["administrative_area_level_1","political"]},{"long_name":"United Kingdom","short_name":"GB","types":["country","political"]},{"long_name":"BN2 0EQ","short_name":"BN2 0EQ","types":["postal_code"]}],"formatted_address":"Sutherland Rd, Brighton BN2 0EQ, UK","geometry":{"bounds":{"northeast":{"lat":50.824935,"lng":-0.1191918},"southwest":{"lat":50.820692,"lng":-0.1235547}},"location":{"lat":50.8228904,"lng":-0.1215031},"location_type":"GEOMETRIC_CENTER","viewport":{"northeast":{"lat":50.824935,"lng":-0.1191918},"southwest":{"lat":50.820692,"lng":-0.1235547}}},"place_id":"ChIJC___xb2FdUgRrJLWJPelyfw","types":["route"]}},{"roadName":"Tilbury Place","secure":false,"geometry":{"address_components":[{"long_name":"Tilbury Place","short_name":"Tilbury Pl","types":["route"]},{"long_name":"Brighton","short_name":"Brighton","types":["postal_town"]},{"long_name":"The City of Brighton and Hove","short_name":"The City of Brighton and Hove","types":["administrative_area_level_2","political"]},{"long_name":"England","short_name":"England","types":["administrative_area_level_1","political"]},{"long_name":"United Kingdom","short_name":"GB","types":["country","political"]},{"long_name":"BN2 0GY","short_name":"BN2 0GY","types":["postal_code"]}],"formatted_address":"Tilbury Pl, Brighton BN2 0GY, UK","geometry":{"bounds":{"northeast":{"lat":50.8243242,"lng":-0.1318618},"southwest":{"lat":50.8237867,"lng":-0.1322109}},"location":{"lat":50.8242825,"lng":-0.1319181},"location_type":"GEOMETRIC_CENTER","viewport":{"northeast":{"lat":50.8254044302915,"lng":-0.130687369708498},"southwest":{"lat":50.8227064697085,"lng":-0.133385330291502}}},"place_id":"ChIJ5Q3CapiFdUgR8XTz46TRJ2k","types":["route"]}},{"roadName":"Tillstone Street","secure":false,"geometry":{"address_components":[{"long_name":"Tillstone Street","short_name":"Tillstone St","types":["route"]},{"long_name":"Brighton","short_name":"Brighton","types":["postal_town"]},{"long_name":"The City of Brighton and Hove","short_name":"The City of Brighton and Hove","types":["administrative_area_level_2","political"]},{"long_name":"England","short_name":"England","types":["administrative_area_level_1","political"]},{"long_name":"United Kingdom","short_name":"GB","types":["country","political"]},{"long_name":"BN2 0BD","short_name":"BN2 0BD","types":["postal_code"]}],"formatted_address":"Tillstone St, Brighton BN2 0BD, UK","geometry":{"bounds":{"northeast":{"lat":50.8232728,"lng":-0.1273419},"southwest":{"lat":50.8217021,"lng":-0.1286156}},"location":{"lat":50.821995,"lng":-0.1284005},"location_type":"GEOMETRIC_CENTER","viewport":{"northeast":{"lat":50.82383643029149,"lng":-0.126629769708498},"southwest":{"lat":50.82113846970849,"lng":-0.129327730291502}}},"place_id":"ChIJc26A5KKFdUgR2hCDYnezOUo","types":["route"]}},{"roadName":"Tower Road","secure":false,"geometry":{"address_components":[{"long_name":"Tower Road","short_name":"Tower Rd","types":["route"]},{"long_name":"Brighton","short_name":"Brighton","types":["postal_town"]},{"long_name":"The City of Brighton and Hove","short_name":"The City of Brighton and Hove","types":["administrative_area_level_2","political"]},{"long_name":"England","short_name":"England","types":["administrative_area_level_1","political"]},{"long_name":"United Kingdom","short_name":"GB","types":["country","political"]},{"long_name":"BN2 0GF","short_name":"BN2 0GF","types":["postal_code"]}],"formatted_address":"Tower Rd, Brighton BN2 0GF, UK","geometry":{"bounds":{"northeast":{"lat":50.827208,"lng":-0.1247605},"southwest":{"lat":50.82625789999999,"lng":-0.1251005}},"location":{"lat":50.826664,"lng":-0.1248052},"location_type":"GEOMETRIC_CENTER","viewport":{"northeast":{"lat":50.8280819302915,"lng":-0.123581519708498},"southwest":{"lat":50.8253839697085,"lng":-0.126279480291502}}},"place_id":"ChIJ1UcvmJeFdUgRDq2ZVi2HFR8","types":["route"]}},{"roadName":"Upper Rock Gardens","secure":false,"geometry":{"address_components":[{"long_name":"Upper Rock Gardens","short_name":"Upper Rock Gardens","types":["route"]},{"long_name":"Brighton","short_name":"Brighton","types":["postal_town"]},{"long_name":"The City of Brighton and Hove","short_name":"The City of Brighton and Hove","types":["administrative_area_level_2","political"]},{"long_name":"England","short_name":"England","types":["administrative_area_level_1","political"]},{"long_name":"United Kingdom","short_name":"GB","types":["country","political"]},{"long_name":"BN2 1QE","short_name":"BN2 1QE","types":["postal_code"]}],"formatted_address":"Upper Rock Gardens, Brighton BN2 1QE, UK","geometry":{"bounds":{"northeast":{"lat":50.8218379,"lng":-0.1293243},"southwest":{"lat":50.8202349,"lng":-0.1302948}},"location":{"lat":50.8203913,"lng":-0.1301436},"location_type":"GEOMETRIC_CENTER","viewport":{"northeast":{"lat":50.8223853802915,"lng":-0.128460569708498},"southwest":{"lat":50.8196874197085,"lng":-0.131158530291502}}},"place_id":"ChIJK7BbvKOFdUgRODAa1kQtgbI","types":["route"]}},{"roadName":"West Drive","secure":false,"geometry":{"address_components":[{"long_name":"West Drive","short_name":"West Dr","types":["route"]},{"long_name":"Brighton","short_name":"Brighton","types":["postal_town"]},{"long_name":"The City of Brighton and Hove","short_name":"The City of Brighton and Hove","types":["administrative_area_level_2","political"]},{"long_name":"England","short_name":"England","types":["administrative_area_level_1","political"]},{"long_name":"United Kingdom","short_name":"GB","types":["country","political"]},{"long_name":"BN2 0QU","short_name":"BN2 0QU","types":["postal_code"]}],"formatted_address":"West Dr, Brighton BN2 0QU, UK","geometry":{"bounds":{"northeast":{"lat":50.82654059999999,"lng":-0.1247605},"southwest":{"lat":50.8235018,"lng":-0.1283903}},"location":{"lat":50.8251271,"lng":-0.1268368},"location_type":"GEOMETRIC_CENTER","viewport":{"northeast":{"lat":50.82654059999999,"lng":-0.1247605},"southwest":{"lat":50.8235018,"lng":-0.1283903}}},"place_id":"ChIJqRL0BpiFdUgRuW_GSs2B2Es","types":["route"]}},{"roadName":"White Street","secure":false,"geometry":{"address_components":[{"long_name":"White Street","short_name":"White St","types":["route"]},{"long_name":"Brighton","short_name":"Brighton","types":["postal_town"]},{"long_name":"The City of Brighton and Hove","short_name":"The City of Brighton and Hove","types":["administrative_area_level_2","political"]},{"long_name":"England","short_name":"England","types":["administrative_area_level_1","political"]},{"long_name":"United Kingdom","short_name":"GB","types":["country","political"]},{"long_name":"BN2 0JH","short_name":"BN2 0JH","types":["postal_code"]}],"formatted_address":"White St, Brighton BN2 0JH, UK","geometry":{"bounds":{"northeast":{"lat":50.8235751,"lng":-0.1314238},"southwest":{"lat":50.8222587,"lng":-0.1322708}},"location":{"lat":50.82283400000001,"lng":-0.1318915},"location_type":"GEOMETRIC_CENTER","viewport":{"northeast":{"lat":50.82426588029151,"lng":-0.130498319708498},"southwest":{"lat":50.82156791970851,"lng":-0.133196280291502}}},"place_id":"ChIJGawaiKGFdUgR4KD1XVSZN3g","types":["route"]}},{"roadName":"William Street","secure":false,"geometry":{"address_components":[{"long_name":"William Street","short_name":"William St","types":["route"]},{"long_name":"Brighton","short_name":"Brighton","types":["postal_town"]},{"long_name":"The City of Brighton and Hove","short_name":"The City of Brighton and Hove","types":["administrative_area_level_2","political"]},{"long_name":"England","short_name":"England","types":["administrative_area_level_1","political"]},{"long_name":"United Kingdom","short_name":"GB","types":["country","political"]},{"long_name":"BN2","short_name":"BN2","types":["postal_code","postal_code_prefix"]}],"formatted_address":"William St, Brighton BN2, UK","geometry":{"bounds":{"northeast":{"lat":50.82424779999999,"lng":-0.1341119},"southwest":{"lat":50.8226929,"lng":-0.135131}},"location":{"lat":50.8233738,"lng":-0.1346339},"location_type":"GEOMETRIC_CENTER","viewport":{"northeast":{"lat":50.8248193302915,"lng":-0.133272469708498},"southwest":{"lat":50.8221213697085,"lng":-0.135970430291502}}},"place_id":"ChIJHXOENaCFdUgRzm5Oe-aGJsM","types":["route"]}},{"roadName":"Wyndham Street","secure":false,"geometry":{"address_components":[{"long_name":"Wyndham Street","short_name":"Wyndham St","types":["route"]},{"long_name":"Brighton","short_name":"Brighton","types":["postal_town"]},{"long_name":"The City of Brighton and Hove","short_name":"The City of Brighton and Hove","types":["administrative_area_level_2","political"]},{"long_name":"England","short_name":"England","types":["administrative_area_level_1","political"]},{"long_name":"United Kingdom","short_name":"GB","types":["country","political"]},{"long_name":"BN2 1AF","short_name":"BN2 1AF","types":["postal_code"]}],"formatted_address":"Wyndham St, Brighton BN2 1AF, UK","geometry":{"bounds":{"northeast":{"lat":50.8197035,"lng":-0.1282702},"southwest":{"lat":50.8187211,"lng":-0.1287252}},"location":{"lat":50.8197035,"lng":-0.1283248},"location_type":"GEOMETRIC_CENTER","viewport":{"northeast":{"lat":50.8205612802915,"lng":-0.1271487197084979},"southwest":{"lat":50.8178633197085,"lng":-0.129846680291502}}},"place_id":"ChIJb10HhKSFdUgRc6HAofB_aFU","types":["route"]}},{"roadName":"Abbey Road","secure":false,"geometry":{"address_components":[{"long_name":"Abbey Road","short_name":"Abbey Rd","types":["route"]},{"long_name":"Brighton","short_name":"Brighton","types":["postal_town"]},{"long_name":"The City of Brighton and Hove","short_name":"The City of Brighton and Hove","types":["administrative_area_level_2","political"]},{"long_name":"England","short_name":"England","types":["administrative_area_level_1","political"]},{"long_name":"United Kingdom","short_name":"GB","types":["country","political"]},{"long_name":"BN2","short_name":"BN2","types":["postal_code","postal_code_prefix"]}],"formatted_address":"Abbey Rd, Brighton BN2, UK","geometry":{"bounds":{"northeast":{"lat":50.8194248,"lng":-0.1192823},"southwest":{"lat":50.8181799,"lng":-0.1199872}},"location":{"lat":50.8189118,"lng":-0.1195835},"location_type":"GEOMETRIC_CENTER","viewport":{"northeast":{"lat":50.82015133029151,"lng":-0.118285769708498},"southwest":{"lat":50.81745336970851,"lng":-0.120983730291502}}},"place_id":"ChIJVUbCWrmFdUgRtBet6e0ski0","types":["route"]}},{"roadName":"Belgrave Place","secure":false,"geometry":{"address_components":[{"long_name":"Belgrave Place","short_name":"Belgrave Pl","types":["route"]},{"long_name":"Brighton","short_name":"Brighton","types":["postal_town"]},{"long_name":"The City of Brighton and Hove","short_name":"The City of Brighton and Hove","types":["administrative_area_level_2","political"]},{"long_name":"England","short_name":"England","types":["administrative_area_level_1","political"]},{"long_name":"United Kingdom","short_name":"GB","types":["country","political"]},{"long_name":"BN2 1EL","short_name":"BN2 1EL","types":["postal_code"]}],"formatted_address":"Belgrave Pl, Brighton BN2 1EL, UK","geometry":{"bounds":{"northeast":{"lat":50.8172475,"lng":-0.1173349},"southwest":{"lat":50.8166129,"lng":-0.1177587}},"location":{"lat":50.817172,"lng":-0.1175322},"location_type":"GEOMETRIC_CENTER","viewport":{"northeast":{"lat":50.8182791802915,"lng":-0.116197819708498},"southwest":{"lat":50.8155812197085,"lng":-0.118895780291502}}},"place_id":"ChIJIY2cqrmFdUgRhmkB5zjTnHU","types":["route"]}},{"roadName":"Bloomsbury Place","secure":false,"geometry":{"address_components":[{"long_name":"Bloomsbury Place","short_name":"Bloomsbury Pl","types":["route"]},{"long_name":"Brighton","short_name":"Brighton","types":["postal_town"]},{"long_name":"The City of Brighton and Hove","short_name":"The City of Brighton and Hove","types":["administrative_area_level_2","political"]},{"long_name":"England","short_name":"England","types":["administrative_area_level_1","political"]},{"long_name":"United Kingdom","short_name":"GB","types":["country","political"]},{"long_name":"BN2 1DA","short_name":"BN2 1DA","types":["postal_code"]}],"formatted_address":"Bloomsbury Pl, Brighton BN2 1DA, UK","geometry":{"bounds":{"northeast":{"lat":50.8189524,"lng":-0.1225235},"southwest":{"lat":50.8176632,"lng":-0.1234878}},"location":{"lat":50.8179417,"lng":-0.1232291},"location_type":"GEOMETRIC_CENTER","viewport":{"northeast":{"lat":50.8196567802915,"lng":-0.121656669708498},"southwest":{"lat":50.8169588197085,"lng":-0.124354630291502}}},"place_id":"ChIJ7bSsCruFdUgRKr809prK4L0","types":["route"]}},{"roadName":"Bowring Way","secure":false,"geometry":{"address_components":[{"long_name":"Bowring Way","short_name":"Bowring Way","types":["route"]},{"long_name":"Brighton","short_name":"Brighton","types":["postal_town"]},{"long_name":"The City of Brighton and Hove","short_name":"The City of Brighton and Hove","types":["administrative_area_level_2","political"]},{"long_name":"England","short_name":"England","types":["administrative_area_level_1","political"]},{"long_name":"United Kingdom","short_name":"GB","types":["country","political"]},{"long_name":"BN2 5DG","short_name":"BN2 5DG","types":["postal_code"]}],"formatted_address":"Bowring Way, Brighton BN2 5DG, UK","geometry":{"bounds":{"northeast":{"lat":50.8208111,"lng":-0.1126529},"southwest":{"lat":50.8197044,"lng":-0.1138761}},"location":{"lat":50.8203183,"lng":-0.1132931},"location_type":"GEOMETRIC_CENTER","viewport":{"northeast":{"lat":50.8216067302915,"lng":-0.111915519708498},"southwest":{"lat":50.8189087697085,"lng":-0.114613480291502}}},"place_id":"ChIJ12oyuMCFdUgRrd9mQUmUA0o","types":["route"]}},{"roadName":"Burlington Street","secure":false,"geometry":{"address_components":[{"long_name":"Burlington Street","short_name":"Burlington St","types":["route"]},{"long_name":"Brighton","short_name":"Brighton","types":["postal_town"]},{"long_name":"The City of Brighton and Hove","short_name":"The City of Brighton and Hove","types":["administrative_area_level_2","political"]},{"long_name":"England","short_name":"England","types":["administrative_area_level_1","political"]},{"long_name":"United Kingdom","short_name":"GB","types":["country","political"]},{"long_name":"BN2 1AU","short_name":"BN2 1AU","types":["postal_code"]}],"formatted_address":"Burlington St, Brighton BN2 1AU, UK","geometry":{"bounds":{"northeast":{"lat":50.8193289,"lng":-0.1237961},"southwest":{"lat":50.8178977,"lng":-0.1244662}},"location":{"lat":50.8186748,"lng":-0.124121},"location_type":"GEOMETRIC_CENTER","viewport":{"northeast":{"lat":50.8199622802915,"lng":-0.122782169708498},"southwest":{"lat":50.8172643197085,"lng":-0.125480130291502}}},"place_id":"ChIJPya7bruFdUgRicKwRvl0iWY","types":["route"]}},{"roadName":"Chesham Place","secure":true,"geometry":{"address_components":[{"long_name":"Chesham Place","short_name":"Chesham Pl","types":["route"]},{"long_name":"Brighton","short_name":"Brighton","types":["postal_town"]},{"long_name":"The City of Brighton and Hove","short_name":"The City of Brighton and Hove","types":["administrative_area_level_2","political"]},{"long_name":"England","short_name":"England","types":["administrative_area_level_1","political"]},{"long_name":"United Kingdom","short_name":"GB","types":["country","political"]},{"long_name":"BN2 1FB","short_name":"BN2 1FB","types":["postal_code"]}],"formatted_address":"Chesham Pl, Brighton BN2 1FB, UK","geometry":{"bounds":{"northeast":{"lat":50.8173151,"lng":-0.1151846},"southwest":{"lat":50.81621579999999,"lng":-0.1158653}},"location":{"lat":50.81699709999999,"lng":-0.1154146},"location_type":"GEOMETRIC_CENTER","viewport":{"northeast":{"lat":50.8181144302915,"lng":-0.114175969708498},"southwest":{"lat":50.8154164697085,"lng":-0.116873930291502}}},"place_id":"ChIJs-mvY7iFdUgRn0TVH_-ZJOg","types":["route"]}},{"roadName":"Chichester Place","secure":false,"geometry":{"address_components":[{"long_name":"Chichester Place","short_name":"Chichester Pl","types":["route"]},{"long_name":"Brighton","short_name":"Brighton","types":["postal_town"]},{"long_name":"The City of Brighton and Hove","short_name":"The City of Brighton and Hove","types":["administrative_area_level_2","political"]},{"long_name":"England","short_name":"England","types":["administrative_area_level_1","political"]},{"long_name":"United Kingdom","short_name":"GB","types":["country","political"]},{"long_name":"BN2 1FF","short_name":"BN2 1FF","types":["postal_code"]}],"formatted_address":"Chichester Pl, Brighton BN2 1FF, UK","geometry":{"bounds":{"northeast":{"lat":50.81800370000001,"lng":-0.1143243},"southwest":{"lat":50.81602059999999,"lng":-0.1149123}},"location":{"lat":50.8168571,"lng":-0.1146238},"location_type":"GEOMETRIC_CENTER","viewport":{"northeast":{"lat":50.8183611302915,"lng":-0.113269319708498},"southwest":{"lat":50.8156631697085,"lng":-0.115967280291502}}},"place_id":"ChIJH99sgLiFdUgRaQLyp9pXsvs","types":["route"]}},{"roadName":"College Road","secure":false,"geometry":{"address_components":[{"long_name":"College Road","short_name":"College Rd","types":["route"]},{"long_name":"Brighton","short_name":"Brighton","types":["postal_town"]},{"long_name":"The City of Brighton and Hove","short_name":"The City of Brighton and Hove","types":["administrative_area_level_2","political"]},{"long_name":"England","short_name":"England","types":["administrative_area_level_1","political"]},{"long_name":"United Kingdom","short_name":"GB","types":["country","political"]},{"long_name":"BN2 1JB","short_name":"BN2 1JB","types":["postal_code"]}],"formatted_address":"College Rd, Brighton BN2 1JB, UK","geometry":{"bounds":{"northeast":{"lat":50.8204048,"lng":-0.1224917},"southwest":{"lat":50.8191798,"lng":-0.1233902}},"location":{"lat":50.81988860000001,"lng":-0.122871},"location_type":"GEOMETRIC_CENTER","viewport":{"northeast":{"lat":50.8211412802915,"lng":-0.121591969708498},"southwest":{"lat":50.8184433197085,"lng":-0.124289930291502}}},"place_id":"ChIJeYjtfryFdUgRsmR3s55bsH0","types":["route"]}},{"roadName":"Crescent Place","secure":false,"geometry":{"address_components":[{"long_name":"Crescent Place","short_name":"Crescent Pl","types":["route"]},{"long_name":"Brighton","short_name":"Brighton","types":["postal_town"]},{"long_name":"The City of Brighton and Hove","short_name":"The City of Brighton and Hove","types":["administrative_area_level_2","political"]},{"long_name":"England","short_name":"England","types":["administrative_area_level_1","political"]},{"long_name":"United Kingdom","short_name":"GB","types":["country","political"]},{"long_name":"BN2 1AS","short_name":"BN2 1AS","types":["postal_code"]}],"formatted_address":"Crescent Pl, Brighton BN2 1AS, UK","geometry":{"bounds":{"northeast":{"lat":50.8191798,"lng":-0.1233087},"southwest":{"lat":50.81775349999999,"lng":-0.1239218}},"location":{"lat":50.8181113,"lng":-0.1238159},"location_type":"GEOMETRIC_CENTER","viewport":{"northeast":{"lat":50.81981563029149,"lng":-0.122266269708498},"southwest":{"lat":50.81711766970849,"lng":-0.124964230291502}}},"place_id":"ChIJWwe6c7uFdUgRgJiaQDhSnnY","types":["route"]}},{"roadName":"Eaton Place","secure":false,"geometry":{"address_components":[{"long_name":"Eaton Place","short_name":"Eaton Pl","types":["route"]},{"long_name":"Brighton","short_name":"Brighton","types":["postal_town"]},{"long_name":"The City of Brighton and Hove","short_name":"The City of Brighton and Hove","types":["administrative_area_level_2","political"]},{"long_name":"England","short_name":"England","types":["administrative_area_level_1","political"]},{"long_name":"United Kingdom","short_name":"GB","types":["country","political"]},{"long_name":"BN2 1EH","short_name":"BN2 1EH","types":["postal_code"]}],"formatted_address":"Eaton Pl, Brighton BN2 1EH, UK","geometry":{"bounds":{"northeast":{"lat":50.8184408,"lng":-0.1158073},"southwest":{"lat":50.81644190000001,"lng":-0.1169248}},"location":{"lat":50.8173956,"lng":-0.1163774},"location_type":"GEOMETRIC_CENTER","viewport":{"northeast":{"lat":50.81879033029151,"lng":-0.115017069708498},"southwest":{"lat":50.81609236970851,"lng":-0.117715030291502}}},"place_id":"ChIJ82Ar8riFdUgRE0bErTOJ8IQ","types":["route"]}},{"roadName":"Lewes Crescent","secure":false,"geometry":{"address_components":[{"long_name":"Lewes Crescent","short_name":"Lewes Cres","types":["route"]},{"long_name":"Brighton","short_name":"Brighton","types":["postal_town"]},{"long_name":"The City of Brighton and Hove","short_name":"The City of Brighton and Hove","types":["administrative_area_level_2","political"]},{"long_name":"England","short_name":"England","types":["administrative_area_level_1","political"]},{"long_name":"United Kingdom","short_name":"GB","types":["country","political"]},{"long_name":"BN2 1FH","short_name":"BN2 1FH","types":["postal_code"]}],"formatted_address":"Lewes Cres, Brighton BN2 1FH, UK","geometry":{"bounds":{"northeast":{"lat":50.8164532,"lng":-0.1096841},"southwest":{"lat":50.8149031,"lng":-0.1130647}},"location":{"lat":50.8162902,"lng":-0.1115477},"location_type":"GEOMETRIC_CENTER","viewport":{"northeast":{"lat":50.8170271302915,"lng":-0.1096841},"southwest":{"lat":50.8143291697085,"lng":-0.1130647}}},"place_id":"ChIJzUHUN8aFdUgRCFOFGXnv4XA","types":["route"]}},{"roadName":"Manor Road","secure":false,"geometry":{"address_components":[{"long_name":"Manor Road","short_name":"Manor Rd","types":["route"]},{"long_name":"Brighton","short_name":"Brighton","types":["postal_town"]},{"long_name":"The City of Brighton and Hove","short_name":"The City of Brighton and Hove","types":["administrative_area_level_2","political"]},{"long_name":"England","short_name":"England","types":["administrative_area_level_1","political"]},{"long_name":"United Kingdom","short_name":"GB","types":["country","political"]},{"long_name":"BN2 5EE","short_name":"BN2 5EE","types":["postal_code"]}],"formatted_address":"Manor Rd, Brighton BN2 5EE, UK","geometry":{"bounds":{"northeast":{"lat":50.8234818,"lng":-0.1085859},"southwest":{"lat":50.81841499999999,"lng":-0.1112067}},"location":{"lat":50.8209452,"lng":-0.1101973},"location_type":"GEOMETRIC_CENTER","viewport":{"northeast":{"lat":50.8234818,"lng":-0.108547319708498},"southwest":{"lat":50.81841499999999,"lng":-0.111245280291502}}},"place_id":"ChIJbR31acGFdUgRkM8rcoQ3wvc","types":["route"]}},{"roadName":"Marine Square","secure":false,"geometry":{"address_components":[{"long_name":"Marine Square","short_name":"Marine Square","types":["route"]},{"long_name":"Brighton","short_name":"Brighton","types":["postal_town"]},{"long_name":"The City of Brighton and Hove","short_name":"The City of Brighton and Hove","types":["administrative_area_level_2","political"]},{"long_name":"England","short_name":"England","types":["administrative_area_level_1","political"]},{"long_name":"United Kingdom","short_name":"GB","types":["country","political"]},{"long_name":"BN2 1DL","short_name":"BN2 1DL","types":["postal_code"]}],"formatted_address":"Marine Square, Brighton BN2 1DL, UK","geometry":{"bounds":{"northeast":{"lat":50.8185071,"lng":-0.1213657},"southwest":{"lat":50.8177204,"lng":-0.1221784}},"location":{"lat":50.818141,"lng":-0.1215275},"location_type":"GEOMETRIC_CENTER","viewport":{"northeast":{"lat":50.8194627302915,"lng":-0.120423069708498},"southwest":{"lat":50.8167647697085,"lng":-0.123121030291502}}},"place_id":"ChIJU7ljv7uFdUgRg6Cou09i2L4","types":["route"]}},{"roadName":"Paston Place","secure":false,"geometry":{"address_components":[{"long_name":"Paston Place","short_name":"Paston Pl","types":["route"]},{"long_name":"Brighton","short_name":"Brighton","types":["postal_town"]},{"long_name":"The City of Brighton and Hove","short_name":"The City of Brighton and Hove","types":["administrative_area_level_2","political"]},{"long_name":"England","short_name":"England","types":["administrative_area_level_1","political"]},{"long_name":"United Kingdom","short_name":"GB","types":["country","political"]},{"long_name":"BN2 1HA","short_name":"BN2 1HA","types":["postal_code"]}],"formatted_address":"Paston Pl, Brighton BN2 1HA, UK","geometry":{"bounds":{"northeast":{"lat":50.81917929999999,"lng":-0.1184353},"southwest":{"lat":50.8169574,"lng":-0.1194799}},"location":{"lat":50.8179434,"lng":-0.1190445},"location_type":"GEOMETRIC_CENTER","viewport":{"northeast":{"lat":50.8194173302915,"lng":-0.117608619708498},"southwest":{"lat":50.8167193697085,"lng":-0.120306580291502}}},"place_id":"ChIJy-sea7mFdUgRIILD2EX08_I","types":["route"]}},{"roadName":"Portland Place","secure":false,"geometry":{"address_components":[{"long_name":"Portland Place","short_name":"Portland Pl","types":["route"]},{"long_name":"Brighton","short_name":"Brighton","types":["postal_town"]},{"long_name":"The City of Brighton and Hove","short_name":"The City of Brighton and Hove","types":["administrative_area_level_2","political"]},{"long_name":"England","short_name":"England","types":["administrative_area_level_1","political"]},{"long_name":"United Kingdom","short_name":"GB","types":["country","political"]},{"long_name":"BN2 1DG","short_name":"BN2 1DG","types":["postal_code"]}],"formatted_address":"Portland Pl, Brighton BN2 1DG, UK","geometry":{"bounds":{"northeast":{"lat":50.8183081,"lng":-0.1203524},"southwest":{"lat":50.8172496,"lng":-0.120953}},"location":{"lat":50.8183081,"lng":-0.1205163},"location_type":"GEOMETRIC_CENTER","viewport":{"northeast":{"lat":50.81912783029151,"lng":-0.119303719708498},"southwest":{"lat":50.81642986970851,"lng":-0.122001680291502}}},"place_id":"ChIJOfB92buFdUgRIuTtPPMHAJw","types":["route"]}},{"roadName":"Rock Street","secure":false,"geometry":{"address_components":[{"long_name":"Rock Street","short_name":"Rock St","types":["route"]},{"long_name":"Brighton","short_name":"Brighton","types":["postal_town"]},{"long_name":"The City of Brighton and Hove","short_name":"The City of Brighton and Hove","types":["administrative_area_level_2","political"]},{"long_name":"England","short_name":"England","types":["administrative_area_level_1","political"]},{"long_name":"United Kingdom","short_name":"GB","types":["country","political"]},{"long_name":"BN2 1NF","short_name":"BN2 1NF","types":["postal_code"]}],"formatted_address":"Rock St, Brighton BN2 1NF, UK","geometry":{"bounds":{"northeast":{"lat":50.817333,"lng":-0.1116057},"southwest":{"lat":50.81662499999999,"lng":-0.1131628}},"location":{"lat":50.8167446,"lng":-0.1118993},"location_type":"GEOMETRIC_CENTER","viewport":{"northeast":{"lat":50.8183279802915,"lng":-0.1110352697084979},"southwest":{"lat":50.8156300197085,"lng":-0.113733230291502}}},"place_id":"ChIJqWb5B8eFdUgRWtKIZ3GEe2Y","types":["route"]}},{"roadName":"Slinfold Close","secure":false,"geometry":{"address_components":[{"long_name":"Slinfold Close","short_name":"Slinfold Cl","types":["route"]},{"long_name":"Brighton","short_name":"Brighton","types":["postal_town"]},{"long_name":"The City of Brighton and Hove","short_name":"The City of Brighton and Hove","types":["administrative_area_level_2","political"]},{"long_name":"England","short_name":"England","types":["administrative_area_level_1","political"]},{"long_name":"United Kingdom","short_name":"GB","types":["country","political"]},{"long_name":"BN2 0YS","short_name":"BN2 0YS","types":["postal_code"]}],"formatted_address":"Slinfold Cl, Brighton BN2 0YS, UK","geometry":{"bounds":{"northeast":{"lat":50.8223254,"lng":-0.1137537},"southwest":{"lat":50.821499,"lng":-0.1162205}},"location":{"lat":50.8217256,"lng":-0.114725},"location_type":"GEOMETRIC_CENTER","viewport":{"northeast":{"lat":50.8232611802915,"lng":-0.113638119708498},"southwest":{"lat":50.8205632197085,"lng":-0.116336080291502}}},"place_id":"ChIJD8Dae7-FdUgRJEj_0I2sD1M","types":["route"]}},{"roadName":"St Marks Street","secure":false,"geometry":{"address_components":[{"long_name":"Saint Mark's Street","short_name":"St Mark's St","types":["route"]},{"long_name":"Brighton","short_name":"Brighton","types":["postal_town"]},{"long_name":"The City of Brighton and Hove","short_name":"The City of Brighton and Hove","types":["administrative_area_level_2","political"]},{"long_name":"England","short_name":"England","types":["administrative_area_level_1","political"]},{"long_name":"United Kingdom","short_name":"GB","types":["country","political"]},{"long_name":"BN2 5JH","short_name":"BN2 5JH","types":["postal_code"]}],"formatted_address":"St Mark's St, Brighton BN2 5JH, UK","geometry":{"bounds":{"northeast":{"lat":50.8175786,"lng":-0.1124909},"southwest":{"lat":50.8168819,"lng":-0.1131363}},"location":{"lat":50.8175786,"lng":-0.1127139},"location_type":"GEOMETRIC_CENTER","viewport":{"northeast":{"lat":50.8185792302915,"lng":-0.111464619708498},"southwest":{"lat":50.81588126970851,"lng":-0.114162580291502}}},"place_id":"ChIJs_KeC8eFdUgRO8yEKaIXmRc","types":["route"]}},{"roadName":"Sussex Square","secure":false,"geometry":{"address_components":[{"long_name":"Sussex Square","short_name":"Sussex Square","types":["route"]},{"long_name":"Brighton","short_name":"Brighton","types":["postal_town"]},{"long_name":"The City of Brighton and Hove","short_name":"The City of Brighton and Hove","types":["administrative_area_level_2","political"]},{"long_name":"England","short_name":"England","types":["administrative_area_level_1","political"]},{"long_name":"United Kingdom","short_name":"GB","types":["country","political"]},{"long_name":"BN2 5AB","short_name":"BN2 5AB","types":["postal_code"]}],"formatted_address":"Sussex Square, Brighton BN2 5AB, UK","geometry":{"bounds":{"northeast":{"lat":50.8179576,"lng":-0.1080703},"southwest":{"lat":50.8162611,"lng":-0.1119841}},"location":{"lat":50.817052,"lng":-0.1098965},"location_type":"GEOMETRIC_CENTER","viewport":{"northeast":{"lat":50.8184583302915,"lng":-0.1080703},"southwest":{"lat":50.8157603697085,"lng":-0.1119841}}},"place_id":"ChIJ2QHR9caFdUgRVo5HrolmWM0","types":["route"]}},{"roadName":"Turton Close","secure":false,"geometry":{"address_components":[{"long_name":"Turton Close","short_name":"Turton Cl","types":["route"]},{"long_name":"Brighton","short_name":"Brighton","types":["postal_town"]},{"long_name":"The City of Brighton and Hove","short_name":"The City of Brighton and Hove","types":["administrative_area_level_2","political"]},{"long_name":"England","short_name":"England","types":["administrative_area_level_1","political"]},{"long_name":"United Kingdom","short_name":"GB","types":["country","political"]},{"long_name":"BN2 5DA","short_name":"BN2 5DA","types":["postal_code"]}],"formatted_address":"Turton Cl, Brighton BN2 5DA, UK","geometry":{"bounds":{"northeast":{"lat":50.8207073,"lng":-0.1161112},"southwest":{"lat":50.8203434,"lng":-0.1171312}},"location":{"lat":50.82052419999999,"lng":-0.1167424},"location_type":"GEOMETRIC_CENTER","viewport":{"northeast":{"lat":50.8218743302915,"lng":-0.115272219708498},"southwest":{"lat":50.8191763697085,"lng":-0.117970180291502}}},"place_id":"ChIJR7hgO7-FdUgRTA4JdQH0bBw","types":["route"]}},{"roadName":"Walpole Road","secure":false,"geometry":{"address_components":[{"long_name":"Walpole Road","short_name":"Walpole Rd","types":["route"]},{"long_name":"Brighton","short_name":"Brighton","types":["postal_town"]},{"long_name":"The City of Brighton and Hove","short_name":"The City of Brighton and Hove","types":["administrative_area_level_2","political"]},{"long_name":"England","short_name":"England","types":["administrative_area_level_1","political"]},{"long_name":"United Kingdom","short_name":"GB","types":["country","political"]},{"long_name":"BN2 0EA","short_name":"BN2 0EA","types":["postal_code"]}],"formatted_address":"Walpole Rd, Brighton BN2 0EA, UK","geometry":{"bounds":{"northeast":{"lat":50.8212832,"lng":-0.1175028},"southwest":{"lat":50.8199946,"lng":-0.1214879}},"location":{"lat":50.8209086,"lng":-0.1191049},"location_type":"GEOMETRIC_CENTER","viewport":{"northeast":{"lat":50.8219878802915,"lng":-0.1175028},"southwest":{"lat":50.8192899197085,"lng":-0.1214879}}},"place_id":"ChIJWQ3GvL6FdUgRzLyT3vNfZu4","types":["route"]}},{"roadName":"Walpole Terrace","secure":false,"geometry":{"address_components":[{"long_name":"Walpole Terrace","short_name":"Walpole Terrace","types":["route"]},{"long_name":"Brighton","short_name":"Brighton","types":["postal_town"]},{"long_name":"The City of Brighton and Hove","short_name":"The City of Brighton and Hove","types":["administrative_area_level_2","political"]},{"long_name":"England","short_name":"England","types":["administrative_area_level_1","political"]},{"long_name":"United Kingdom","short_name":"GB","types":["country","political"]},{"long_name":"BN2 0EB","short_name":"BN2 0EB","types":["postal_code"]}],"formatted_address":"Walpole Terrace, Brighton BN2 0EB, UK","geometry":{"bounds":{"northeast":{"lat":50.82293139999999,"lng":-0.1187324},"southwest":{"lat":50.8212176,"lng":-0.1201576}},"location":{"lat":50.8225556,"lng":-0.1190456},"location_type":"GEOMETRIC_CENTER","viewport":{"northeast":{"lat":50.8234234802915,"lng":-0.118096019708498},"southwest":{"lat":50.8207255197085,"lng":-0.120793980291502}}},"place_id":"ChIJvb5JiL6FdUgRO5TFXTGEMyw","types":["route"]}},{"roadName":"Argyle Road","secure":false,"geometry":{"address_components":[{"long_name":"Argyle Road","short_name":"Argyle Rd","types":["route"]},{"long_name":"Brighton","short_name":"Brighton","types":["postal_town"]},{"long_name":"The City of Brighton and Hove","short_name":"The City of Brighton and Hove","types":["administrative_area_level_2","political"]},{"long_name":"England","short_name":"England","types":["administrative_area_level_1","political"]},{"long_name":"United Kingdom","short_name":"GB","types":["country","political"]},{"long_name":"BN1 4QA","short_name":"BN1 4QA","types":["postal_code"]}],"formatted_address":"Argyle Rd, Brighton BN1 4QA, UK","geometry":{"bounds":{"northeast":{"lat":50.8351046,"lng":-0.1408193},"southwest":{"lat":50.8335223,"lng":-0.1421543}},"location":{"lat":50.8341607,"lng":-0.1418193},"location_type":"GEOMETRIC_CENTER","viewport":{"northeast":{"lat":50.8356624302915,"lng":-0.140137819708498},"southwest":{"lat":50.8329644697085,"lng":-0.142835780291502}}},"place_id":"ChIJPRHZbneFdUgRuJ0JrC1UDh8","types":["route"]}},{"roadName":"Gerrard Street","secure":true,"geometry":{"address_components":[{"long_name":"Gerard Street","short_name":"Gerard St","types":["route"]},{"long_name":"Brighton","short_name":"Brighton","types":["postal_town"]},{"long_name":"The City of Brighton and Hove","short_name":"The City of Brighton and Hove","types":["administrative_area_level_2","political"]},{"long_name":"England","short_name":"England","types":["administrative_area_level_1","political"]},{"long_name":"United Kingdom","short_name":"GB","types":["country","political"]},{"long_name":"BN1 4NW","short_name":"BN1 4NW","types":["postal_code"]}],"formatted_address":"Gerard St, Brighton BN1 4NW, UK","geometry":{"bounds":{"northeast":{"lat":50.835729,"lng":-0.1374972},"southwest":{"lat":50.8346299,"lng":-0.1385438}},"location":{"lat":50.835729,"lng":-0.1380478},"location_type":"GEOMETRIC_CENTER","viewport":{"northeast":{"lat":50.83652843029149,"lng":-0.136671519708498},"southwest":{"lat":50.8338304697085,"lng":-0.139369480291502}}},"place_id":"ChIJ46gNAniFdUgRO_OAZzHdSwc","types":["route"]}},{"roadName":"Preston Road","secure":true,"geometry":{"address_components":[{"long_name":"Preston Road","short_name":"Preston Rd","types":["route"]},{"long_name":"Brighton","short_name":"Brighton","types":["postal_town"]},{"long_name":"The City of Brighton and Hove","short_name":"The City of Brighton and Hove","types":["administrative_area_level_2","political"]},{"long_name":"England","short_name":"England","types":["administrative_area_level_1","political"]},{"long_name":"United Kingdom","short_name":"GB","types":["country","political"]},{"long_name":"BN1","short_name":"BN1","types":["postal_code","postal_code_prefix"]}],"formatted_address":"Preston Rd, Brighton BN1, UK","geometry":{"bounds":{"northeast":{"lat":50.8466033,"lng":-0.1389125},"southwest":{"lat":50.8334738,"lng":-0.1526244}},"location":{"lat":50.8387281,"lng":-0.1476453},"location_type":"GEOMETRIC_CENTER","viewport":{"northeast":{"lat":50.8466033,"lng":-0.1389125},"southwest":{"lat":50.8334738,"lng":-0.1526244}}},"place_id":"EhxQcmVzdG9uIFJkLCBCcmlnaHRvbiBCTjEsIFVL","types":["route"]}},{"roadName":"Shaftesbury Road","secure":true,"geometry":{"address_components":[{"long_name":"Shaftesbury Road","short_name":"Shaftesbury Rd","types":["route"]},{"long_name":"Brighton","short_name":"Brighton","types":["postal_town"]},{"long_name":"The City of Brighton and Hove","short_name":"The City of Brighton and Hove","types":["administrative_area_level_2","political"]},{"long_name":"England","short_name":"England","types":["administrative_area_level_1","political"]},{"long_name":"United Kingdom","short_name":"GB","types":["country","political"]},{"long_name":"BN1 4NF","short_name":"BN1 4NF","types":["postal_code"]}],"formatted_address":"Shaftesbury Rd, Brighton BN1 4NF, UK","geometry":{"bounds":{"northeast":{"lat":50.8360199,"lng":-0.1348948},"southwest":{"lat":50.8329099,"lng":-0.1366917}},"location":{"lat":50.834305,"lng":-0.1358752},"location_type":"GEOMETRIC_CENTER","viewport":{"northeast":{"lat":50.8360199,"lng":-0.134444269708498},"southwest":{"lat":50.8329099,"lng":-0.137142230291502}}},"place_id":"ChIJ52EDOp2FdUgRMoCTsOd_Izo","types":["route"]}},{"roadName":"Adelaide Crescent","secure":false,"geometry":{"address_components":[{"long_name":"Adelaide Crescent","short_name":"Adelaide Cres","types":["route"]},{"long_name":"Hove","short_name":"Hove","types":["postal_town"]},{"long_name":"The City of Brighton and Hove","short_name":"The City of Brighton and Hove","types":["administrative_area_level_2","political"]},{"long_name":"England","short_name":"England","types":["administrative_area_level_1","political"]},{"long_name":"United Kingdom","short_name":"GB","types":["country","political"]},{"long_name":"BN3 2JH","short_name":"BN3 2JH","types":["postal_code"]}],"formatted_address":"Adelaide Cres, Hove BN3 2JH, UK","geometry":{"bounds":{"northeast":{"lat":50.8252997,"lng":-0.1629845},"southwest":{"lat":50.82380149999999,"lng":-0.1661226}},"location":{"lat":50.82457789999999,"lng":-0.1648206},"location_type":"GEOMETRIC_CENTER","viewport":{"northeast":{"lat":50.82589958029149,"lng":-0.1629845},"southwest":{"lat":50.8232016197085,"lng":-0.1661226}}},"partial_match":true,"place_id":"ChIJvYigYz-FdUgRS3gG6FJsXVI","types":["route"]}},{"roadName":"Brunswick Place","secure":false,"geometry":{"address_components":[{"long_name":"Brunswick Place","short_name":"Brunswick Pl","types":["route"]},{"long_name":"Hove","short_name":"Hove","types":["postal_town"]},{"long_name":"The City of Brighton and Hove","short_name":"The City of Brighton and Hove","types":["administrative_area_level_2","political"]},{"long_name":"England","short_name":"England","types":["administrative_area_level_1","political"]},{"long_name":"United Kingdom","short_name":"GB","types":["country","political"]},{"long_name":"BN3 1ND","short_name":"BN3 1ND","types":["postal_code"]}],"formatted_address":"Brunswick Pl, Hove BN3 1ND, UK","geometry":{"bounds":{"northeast":{"lat":50.8275602,"lng":-0.1576968},"southwest":{"lat":50.8250515,"lng":-0.1590388}},"location":{"lat":50.8256452,"lng":-0.1585913},"location_type":"GEOMETRIC_CENTER","viewport":{"northeast":{"lat":50.8276548302915,"lng":-0.157018819708498},"southwest":{"lat":50.8249568697085,"lng":-0.159716780291502}}},"partial_match":true,"place_id":"ChIJobuw6GqFdUgR1kgfg7EZTio","types":["route"]}},{"roadName":"Brunswick Road","secure":true,"geometry":{"address_components":[{"long_name":"Brunswick Road","short_name":"Brunswick Rd","types":["route"]},{"long_name":"Hove","short_name":"Hove","types":["postal_town"]},{"long_name":"The City of Brighton and Hove","short_name":"The City of Brighton and Hove","types":["administrative_area_level_2","political"]},{"long_name":"England","short_name":"England","types":["administrative_area_level_1","political"]},{"long_name":"United Kingdom","short_name":"GB","types":["country","political"]},{"long_name":"BN3 1DG","short_name":"BN3 1DG","types":["postal_code"]}],"formatted_address":"Brunswick Rd, Hove BN3 1DG, UK","geometry":{"bounds":{"northeast":{"lat":50.8270722,"lng":-0.1556039},"southwest":{"lat":50.8253649,"lng":-0.1567672}},"location":{"lat":50.82592289999999,"lng":-0.1562643},"location_type":"GEOMETRIC_CENTER","viewport":{"northeast":{"lat":50.8275675302915,"lng":-0.154836569708498},"southwest":{"lat":50.8248695697085,"lng":-0.157534530291502}}},"partial_match":true,"place_id":"ChIJpb0va2uFdUgRRCAxTfIvJWk","types":["route"]}},{"roadName":"Brunswick Square","secure":false,"geometry":{"address_components":[{"long_name":"11","short_name":"11","types":["street_number"]},{"long_name":"Brunswick Square","short_name":"Brunswick Square","types":["route"]},{"long_name":"Hove","short_name":"Hove","types":["locality","political"]},{"long_name":"Brighton","short_name":"Brighton","types":["postal_town"]},{"long_name":"The City of Brighton and Hove","short_name":"The City of Brighton and Hove","types":["administrative_area_level_2","political"]},{"long_name":"England","short_name":"England","types":["administrative_area_level_1","political"]},{"long_name":"United Kingdom","short_name":"GB","types":["country","political"]},{"long_name":"BN3 1EH","short_name":"BN3 1EH","types":["postal_code"]}],"formatted_address":"11 Brunswick Square, Hove, Brighton BN3 1EH, UK","geometry":{"location":{"lat":50.8241543,"lng":-0.1584683},"location_type":"APPROXIMATE","viewport":{"northeast":{"lat":50.82550328029149,"lng":-0.157119319708498},"southwest":{"lat":50.82280531970849,"lng":-0.159817280291502}}},"place_id":"ChIJg69GMBWFdUgRJnbTu1cSF7k","types":["establishment","lodging","point_of_interest"]}},{"roadName":"Brunswick Street East","secure":false,"geometry":{"address_components":[{"long_name":"Brunswick Street East","short_name":"Brunswick St E","types":["route"]},{"long_name":"Hove","short_name":"Hove","types":["postal_town"]},{"long_name":"The City of Brighton and Hove","short_name":"The City of Brighton and Hove","types":["administrative_area_level_2","political"]},{"long_name":"England","short_name":"England","types":["administrative_area_level_1","political"]},{"long_name":"United Kingdom","short_name":"GB","types":["country","political"]},{"long_name":"BN3 1AU","short_name":"BN3 1AU","types":["postal_code"]}],"formatted_address":"Brunswick St E, Hove BN3 1AU, UK","geometry":{"bounds":{"northeast":{"lat":50.8254813,"lng":-0.1571496},"southwest":{"lat":50.8234009,"lng":-0.1582294}},"location":{"lat":50.8244674,"lng":-0.1577454},"location_type":"GEOMETRIC_CENTER","viewport":{"northeast":{"lat":50.8257900802915,"lng":-0.156340519708498},"southwest":{"lat":50.8230921197085,"lng":-0.159038480291502}}},"partial_match":true,"place_id":"ChIJ-8Xw1RSFdUgRJ5CduWSYyQQ","types":["route"]}},{"roadName":"Brunswick Terrace","secure":false,"geometry":{"address_components":[{"long_name":"Brunswick Terrace","short_name":"Brunswick Terrace","types":["route"]},{"long_name":"Western Street","short_name":"Western St","types":["route"]},{"long_name":"Hove","short_name":"Hove","types":["locality","political"]},{"long_name":"Brighton","short_name":"Brighton","types":["postal_town"]},{"long_name":"The City of Brighton and Hove","short_name":"The City of Brighton and Hove","types":["administrative_area_level_2","political"]},{"long_name":"England","short_name":"England","types":["administrative_area_level_1","political"]},{"long_name":"United Kingdom","short_name":"GB","types":["country","political"]},{"long_name":"BN1","short_name":"BN1","types":["postal_code","postal_code_prefix"]}],"formatted_address":"Brunswick Terrace, Western St, Hove, Brighton BN1, UK","geometry":{"bounds":{"northeast":{"lat":50.8238822,"lng":-0.1562677},"southwest":{"lat":50.8228224,"lng":-0.1627815}},"location":{"lat":50.82335029999999,"lng":-0.1598574},"location_type":"GEOMETRIC_CENTER","viewport":{"northeast":{"lat":50.8247012802915,"lng":-0.1562677},"southwest":{"lat":50.8220033197085,"lng":-0.1627815}}},"place_id":"ChIJo8-2aRWFdUgRPwuzAP_NRqk","types":["route"]}},{"roadName":"Cambridge Road","secure":false,"geometry":{"address_components":[{"long_name":"Cambridge Road","short_name":"Cambridge Rd","types":["route"]},{"long_name":"Brighton","short_name":"Brighton","types":["locality","political"]},{"long_name":"Brighton Township","short_name":"Brighton Township","types":["administrative_area_level_3","political"]},{"long_name":"Macoupin County","short_name":"Macoupin County","types":["administrative_area_level_2","political"]},{"long_name":"Illinois","short_name":"IL","types":["administrative_area_level_1","political"]},{"long_name":"United States","short_name":"US","types":["country","political"]},{"long_name":"62012","short_name":"62012","types":["postal_code"]}],"formatted_address":"Cambridge Rd, Brighton, IL 62012, USA","geometry":{"bounds":{"northeast":{"lat":39.03912589999999,"lng":-90.1180766},"southwest":{"lat":39.0353319,"lng":-90.1186479}},"location":{"lat":39.0372549,"lng":-90.1185989},"location_type":"GEOMETRIC_CENTER","viewport":{"northeast":{"lat":39.03912589999999,"lng":-90.1170132697085},"southwest":{"lat":39.0353319,"lng":-90.1197112302915}}},"place_id":"ChIJo9MM_VBm34cRf8QgO5AU5VU","types":["route"]}},{"roadName":"Farm Road","secure":false,"geometry":{"address_components":[{"long_name":"West Farm Road 2","short_name":"W Farm Rd 2","types":["route"]},{"long_name":"Brighton","short_name":"Brighton","types":["locality","political"]},{"long_name":"Missouri","short_name":"MO","types":["administrative_area_level_1","political"]},{"long_name":"United States","short_name":"US","types":["country","political"]},{"long_name":"65617","short_name":"65617","types":["postal_code"]}],"formatted_address":"W Farm Rd 2, Brighton, MO 65617, USA","geometry":{"bounds":{"northeast":{"lat":37.42196,"lng":-93.3503367},"southwest":{"lat":37.420778,"lng":-93.368478}},"location":{"lat":37.4216671,"lng":-93.35948139999999},"location_type":"GEOMETRIC_CENTER","viewport":{"northeast":{"lat":37.42271798029149,"lng":-93.3503367},"southwest":{"lat":37.4200200197085,"lng":-93.368478}}},"place_id":"ChIJuTdkSXWSxYcRApndn6RhgCc","types":["route"]}},{"roadName":"Holland Road","secure":true,"geometry":{"address_components":[{"long_name":"65-71","short_name":"65-71","types":["street_number"]},{"long_name":"Holland Road","short_name":"Holland Rd","types":["route"]},{"long_name":"Hove","short_name":"Hove","types":["postal_town"]},{"long_name":"The City of Brighton and Hove","short_name":"The City of Brighton and Hove","types":["administrative_area_level_2","political"]},{"long_name":"England","short_name":"England","types":["administrative_area_level_1","political"]},{"long_name":"United Kingdom","short_name":"GB","types":["country","political"]},{"long_name":"BN3 1JN","short_name":"BN3 1JN","types":["postal_code"]}],"formatted_address":"65-71 Holland Rd, Hove BN3 1JN, UK","geometry":{"location":{"lat":50.8270806,"lng":-0.1613348},"location_type":"APPROXIMATE","viewport":{"northeast":{"lat":50.82842958029149,"lng":-0.159985819708498},"southwest":{"lat":50.82573161970849,"lng":-0.162683780291502}}},"place_id":"ChIJ7dpTMkCFdUgRq7HnfuuEC0w","types":["church","establishment","place_of_worship","point_of_interest"]}},{"roadName":"Lansdowne Place","secure":false,"geometry":{"address_components":[{"long_name":"Lansdowne Place","short_name":"Lansdowne Pl","types":["route"]},{"long_name":"Hove","short_name":"Hove","types":["postal_town"]},{"long_name":"The City of Brighton and Hove","short_name":"The City of Brighton and Hove","types":["administrative_area_level_2","political"]},{"long_name":"England","short_name":"England","types":["administrative_area_level_1","political"]},{"long_name":"United Kingdom","short_name":"GB","types":["country","political"]},{"long_name":"BN3 1FG","short_name":"BN3 1FG","types":["postal_code"]}],"formatted_address":"Lansdowne Pl, Hove BN3 1FG, UK","geometry":{"bounds":{"northeast":{"lat":50.8279213,"lng":-0.1593428},"southwest":{"lat":50.8234601,"lng":-0.1616901}},"location":{"lat":50.8258871,"lng":-0.1604895},"location_type":"GEOMETRIC_CENTER","viewport":{"northeast":{"lat":50.8279213,"lng":-0.159167469708498},"southwest":{"lat":50.8234601,"lng":-0.161865430291502}}},"partial_match":true,"place_id":"ChIJMxT9HUCFdUgR3vycohleTe4","types":["route"]}},{"roadName":"Lansdowne Road","secure":true,"geometry":{"address_components":[{"long_name":"Lansdowne Road","short_name":"Lansdowne Rd","types":["route"]},{"long_name":"Hove","short_name":"Hove","types":["postal_town"]},{"long_name":"The City of Brighton and Hove","short_name":"The City of Brighton and Hove","types":["administrative_area_level_2","political"]},{"long_name":"England","short_name":"England","types":["administrative_area_level_1","political"]},{"long_name":"United Kingdom","short_name":"GB","types":["country","political"]},{"long_name":"BN3","short_name":"BN3","types":["postal_code","postal_code_prefix"]}],"formatted_address":"Lansdowne Rd, Hove BN3, UK","geometry":{"bounds":{"northeast":{"lat":50.8286417,"lng":-0.154405},"southwest":{"lat":50.8266708,"lng":-0.1636803}},"location":{"lat":50.8278378,"lng":-0.1591442},"location_type":"GEOMETRIC_CENTER","viewport":{"northeast":{"lat":50.82900523029149,"lng":-0.154405},"southwest":{"lat":50.82630726970849,"lng":-0.1636803}}},"partial_match":true,"place_id":"ChIJJdTzXWqFdUgRJiXoVvi5nzs","types":["route"]}},{"roadName":"Lansdowne Street","secure":false,"geometry":{"address_components":[{"long_name":"Lansdowne Street","short_name":"Lansdowne St","types":["route"]},{"long_name":"Hove","short_name":"Hove","types":["postal_town"]},{"long_name":"The City of Brighton and Hove","short_name":"The City of Brighton and Hove","types":["administrative_area_level_2","political"]},{"long_name":"England","short_name":"England","types":["administrative_area_level_1","political"]},